[{"id":85,"name":"CIA","entity_type":"agency","lat":38.9517,"lon":-77.1467,"description":"Central Intelligence Agency. Created by National Security Act 1947. MKULTRA, BCCI banking, Iran-Contra, sexual blackmail operations documented.","centrality":0.1493,"connection_count":43,"signal_count":0,"evidence_tier":"documented"},{"id":88,"name":"Mossad","entity_type":"agency","lat":32.049,"lon":34.7625,"description":"Israeli intelligence service. Robert Maxwell asset. Epstein identified as co-opted agent. PROMIS distribution.","centrality":0.0868,"connection_count":25,"signal_count":0,"evidence_tier":"credible"},{"id":54,"name":"BCCI","entity_type":"organization","lat":51.5127,"lon":-0.0891,"description":"Bank of Credit and Commerce International. CIA's criminal banking arm. Secretly owned First American Bank. Shut down 1991.","centrality":0.0625,"connection_count":18,"signal_count":0,"evidence_tier":"credible"},{"id":87,"name":"FBI","entity_type":"agency","lat":38.8977,"lon":-77.0248,"description":"Federal Bureau of Investigation. COINTELPRO. Hoover compromised by Lansky. CHS memo on Epstein.","centrality":0.059,"connection_count":17,"signal_count":0,"evidence_tier":"documented"},{"id":89,"name":"DOJ","entity_type":"agency","lat":38.8934,"lon":-77.0249,"description":"Department of Justice. Stole PROMIS from INSLAW. Epstein NPA. BCCI non-notification from CIA.","centrality":0.059,"connection_count":17,"signal_count":1,"evidence_tier":"documented"},{"id":4,"name":"Les Wexner","entity_type":"person","lat":40.0848,"lon":-82.8968,"description":"Leslie Herbert Wexner (b. 1937). Founder of L Brands (The Limited, Victoria's Secret, Bath & Body Works, Abercrombie & Fitch). Richest man in Ohio. Mega Group co-founder. Central figure in the Epstein network through an unprecedented financial relationship.\n\nEPSTEIN RELATIONSHIP: Granted Jeffrey ...","centrality":0.0521,"connection_count":15,"signal_count":0,"evidence_tier":"inference"},{"id":57,"name":"Deutsche Bank","entity_type":"organization","lat":50.11,"lon":8.6703,"description":"Maintained Epstein accounts via Butterfly Trust structure. Settled $75M with NYDFS in 2020. Provided $340M+ in loans to Trump after all other US banks refused. Fined for Russian mirror trading/money laundering scheme.","centrality":0.0486,"connection_count":14,"signal_count":1,"evidence_tier":"credible"},{"id":178,"name":"Saudi GID","entity_type":"agency","lat":24.6949,"lon":46.7241,"description":"Al Mukhabarat Al A'amah \u2014 the General Intelligence Directorate (GID) of Saudi Arabia. Also known as the General Intelligence Presidency (GIP). Saudi Arabia's primary foreign intelligence agency, analogous to the CIA.\n\nSAFARI CLUB (1976-1980s): The GID was a founding member of the Safari Club, an ...","centrality":0.0417,"connection_count":12,"signal_count":0,"evidence_tier":"credible"},{"id":111,"name":"Henry Kissinger","entity_type":"person","lat":40.7587,"lon":-73.9706,"description":"Heinz Alfred 'Henry' Kissinger (1923-2023). German-born American diplomat who served as National Security Advisor (1969-1975) and Secretary of State (1973-1977) under Presidents Nixon and Ford \u2014 the only person to hold both positions simultaneously. Nobel Peace Prize laureate (1973) for Vietnam n...","centrality":0.0417,"connection_count":12,"signal_count":0,"evidence_tier":"inference"},{"id":86,"name":"NSA","entity_type":"agency","lat":39.1086,"lon":-76.7714,"description":"National Security Agency. PROMIS/Systematics connection. Watch list included Church Committee members.","centrality":0.0347,"connection_count":10,"signal_count":0,"evidence_tier":"documented"},{"id":76,"name":"Little Saint James","entity_type":"facility","lat":18.2999,"lon":-64.8257,"description":"Little Saint James. Private island in the US Virgin Islands owned by Jeffrey Epstein from 1998 until his death. Also known as 'Pedophile Island' or 'Epstein Island.' Site of a mysterious temple-like structure, staff quarters, and underground facilities documented in aerial photographs and drone f...","centrality":0.0312,"connection_count":9,"signal_count":0,"evidence_tier":"documented"},{"id":243,"name":"22 Avenue Foch","entity_type":"facility","lat":48.8717,"lon":2.2888,"description":"Jeffrey Epstein's Paris apartment, located on one of the most expensive streets in the world in the 16th arrondissement. Purchased by Epstein in 2001 through a French company named SCI JEP.\n\nThe property comprised approximately 685 square meters (7,373 sq ft): three units on the second floor with...","centrality":0.0312,"connection_count":9,"signal_count":0,"evidence_tier":"documented"},{"id":66,"name":"Mega Group","entity_type":"organization","lat":40.758,"lon":-73.9717,"description":"Secretive group of billionaire pro-Israel donors. Co-founded by Wexner and Charles Bronfman. Epstein attended meetings.","centrality":0.0312,"connection_count":9,"signal_count":1,"evidence_tier":"credible"},{"id":172,"name":"MSS","entity_type":"agency","lat":39.9053,"lon":116.3977,"description":"Ministry of State Security (Guojia Anquan Bu, MSS). The People's Republic of China's intelligence, security, and secret police agency. Established in 1983 by merging the Central Investigation Department with counterintelligence elements of the Ministry of Public Security.\n\nFUNCTION: A DOJ documen...","centrality":0.0278,"connection_count":8,"signal_count":4,"evidence_tier":"credible"},{"id":205,"name":"LAKAM","entity_type":"agency","lat":32.0684,"lon":34.7916,"description":"LAKAM (Lishka le-Kishrei Mada \u2014 Bureau of Scientific Relations), also known as Lekem. Israeli scientific intelligence collection agency operating from 1957 to 1986 under the Israeli Ministry of Defense.\n\nMISSION: Collected scientific and technical intelligence for Israel's defense establishment, ...","centrality":0.0278,"connection_count":8,"signal_count":0,"evidence_tier":"credible"},{"id":191,"name":"MI6","entity_type":"agency","lat":51.4871,"lon":-0.1245,"description":"Secret Intelligence Service (SIS/MI6). The United Kingdom's foreign intelligence agency. Established 1909. Responsible for collecting foreign intelligence in support of UK national security and economic well-being.\n\nMAXWELL CONNECTION: Multiple investigative accounts (Gordon Thomas, Seymour Hersh...","centrality":0.0243,"connection_count":7,"signal_count":0,"evidence_tier":"documented"},{"id":207,"name":"NSO Group","entity_type":"organization","lat":32.1632,"lon":34.7916,"description":"NSO Group Technologies (founded 2010, Herzliya, Israel). Private intelligence firm that develops and sells surveillance technology to governments worldwide. Best known for Pegasus, a zero-click spyware capable of compromising any smartphone.\n\nFOUNDERS: Founded by Niv Carmi, Shalev Hulio, and Omri...","centrality":0.0243,"connection_count":7,"signal_count":0,"evidence_tier":"credible"},{"id":184,"name":"Carlyle Group","entity_type":"organization","lat":38.9044,"lon":-77.0398,"description":"The Carlyle Group. Washington, D.C.-based global private equity firm founded in 1987 by David Rubenstein, William Conway Jr., and Daniel D'Aniello. One of the world's largest alternative asset managers, with over $300 billion in assets under management.\n\nSAUDI-BUSH NEXUS: The Carlyle Group became...","centrality":0.0243,"connection_count":7,"signal_count":0,"evidence_tier":"credible"},{"id":141,"name":"MC2 Model Management","entity_type":"organization","lat":25.775,"lon":-80.1868,"description":"MC2 Model Management. Modeling agency founded in 2005 by Jean-Luc Brunel with up to $1 million in funding from Jeffrey Epstein. The name was an inside reference to Einstein's E=MC2 equation, with 'E' standing for Epstein. Operated offices in New York City and Miami. Served as a legitimate commerc...","centrality":0.0243,"connection_count":7,"signal_count":0,"evidence_tier":"credible"},{"id":161,"name":"FSB","entity_type":"agency","lat":55.7601,"lon":37.6261,"description":"Federal Security Service of the Russian Federation (Federalnaya Sluzhba Bezopasnosti). Domestic intelligence and security agency, primary successor to the KGB's Second Chief Directorate (counterintelligence) and Fifth Directorate (dissidents). Established 1995.\n\nPutin served as FSB Director from ...","centrality":0.0208,"connection_count":6,"signal_count":1,"evidence_tier":"credible"},{"id":206,"name":"Unit 8200","entity_type":"agency","lat":31.253,"lon":34.7915,"description":"Unit 8200 (Yehida Shmoneh-Matayim). Israeli Intelligence Corps signals intelligence (SIGINT) unit, equivalent to the U.S. NSA or UK GCHQ. Based at Urim SIGINT Base in the Negev Desert and facilities near Herzliya.\n\nMISSION: Responsible for collecting signals intelligence, conducting cyber operati...","centrality":0.0208,"connection_count":6,"signal_count":0,"evidence_tier":"credible"},{"id":285,"name":"World Economic Forum","entity_type":"organization","lat":46.226,"lon":6.1866,"description":"International non-governmental organization founded in 1971 by Klaus Schwab, headquartered in Cologny, Geneva, Switzerland. Hosts the annual Davos meeting \u2014 the world's premier gathering of political leaders, CEOs, central bankers, and billionaires. Known for shaping global policy through public-...","centrality":0.0208,"connection_count":6,"signal_count":0,"evidence_tier":"credible"},{"id":231,"name":"Heritage Foundation","entity_type":"organization","lat":38.9034,"lon":-77.0148,"description":"Conservative think tank co-founded in 1973 by Joseph Coors Sr and Edwin Fuelner. Produced 'Mandate for Leadership' policy books for Reagan (1981) and Trump (Project 2025, 2023). Immensely powerful during Reagan administration \u2014 policies still affecting Americans today. Funded by Koch network. Her...","centrality":0.0208,"connection_count":6,"signal_count":0,"evidence_tier":"credible"},{"id":186,"name":"Safari Club","entity_type":"organization","lat":30.0444,"lon":31.2357,"description":"The Safari Club (1976-early 1980s). An informal, secret alliance of intelligence agencies formed after the Church Committee hearings (1975) severely curtailed CIA covert operations. Named after the Safari Club resort in Kenya where early meetings were held.\n\nMEMBERS: French SDECE (led by Alexandr...","centrality":0.0208,"connection_count":6,"signal_count":1,"evidence_tier":"credible"},{"id":155,"name":"Zorro Ranch","entity_type":"facility","lat":34.8889,"lon":-105.8578,"description":"Zorro Ranch. A 10,000-acre private property located near Stanley, New Mexico, approximately 30 miles southeast of Santa Fe. Owned by Jeffrey Epstein from the early 1990s until his death in 2019. Approximately 1,200 acres were leased from the New Mexico State Land Commission.\n\nVirginia Giuffre tes...","centrality":0.0174,"connection_count":5,"signal_count":0,"evidence_tier":"documented"},{"id":90,"name":"DARPA","entity_type":"agency","lat":38.8806,"lon":-77.1085,"description":"Defense Advanced Research Projects Agency. Ran Total Information Awareness program. LifeLog program.","centrality":0.0174,"connection_count":5,"signal_count":0,"evidence_tier":"documented"},{"id":190,"name":"MI5","entity_type":"agency","lat":51.4959,"lon":-0.1264,"description":"Security Service (MI5). The United Kingdom's domestic counter-intelligence and security agency. Established 1909. Responsible for protecting the UK against threats to national security including espionage, terrorism, and subversion.\n\nMAXWELL CONNECTION: MI5 held files on Robert Maxwell from at le...","centrality":0.0174,"connection_count":5,"signal_count":1,"evidence_tier":"documented"},{"id":194,"name":"Metropolitan Police","entity_type":"agency","lat":51.4988,"lon":-0.1341,"description":"Metropolitan Police Service (the Met). The territorial police force responsible for law enforcement in Greater London (excluding the City of London). The UK's largest police force, with approximately 34,000 officers.\n\nEPSTEIN INVESTIGATION FAILURE: The Met opened an investigation into Epstein-rel...","centrality":0.0174,"connection_count":5,"signal_count":0,"evidence_tier":"credible"},{"id":56,"name":"JPMorgan Chase","entity_type":"organization","lat":40.758,"lon":-73.9713,"description":"Processed 4,725 suspicious Epstein-related wires totaling $1.1B. Settled $290M in 2023.","centrality":0.0174,"connection_count":5,"signal_count":1,"evidence_tier":"credible"},{"id":59,"name":"Palantir Technologies","entity_type":"organization","lat":39.7539,"lon":-104.9994,"description":"Data analytics firm co-founded by Peter Thiel. Major CIA/NSA/military contractor. Successor to TIA capabilities.","centrality":0.0174,"connection_count":5,"signal_count":1,"evidence_tier":"credible"},{"id":232,"name":"Bechtel Corporation","entity_type":"organization","lat":38.9544,"lon":-77.349,"description":"One of the largest private corporations in the world \u2014 massive government construction contracts. Bechtel family has been involved in Bohemian Club for generations. Textbook revolving door: executives Caspar Weinberger (VP/GC \u2192 SecDef) and George Shultz (President \u2192 SecState) moved directly into ...","centrality":0.0174,"connection_count":5,"signal_count":0,"evidence_tier":"credible"},{"id":173,"name":"CITIC Group","entity_type":"organization","lat":39.9192,"lon":116.4614,"description":"China International Trust and Investment Corporation (CITIC Group). State-owned investment conglomerate established in 1979 at the direction of Deng Xiaoping. One of China's largest and most influential financial and industrial conglomerates.\n\nMILITARY-INTELLIGENCE CONNECTIONS: The Rand Corporati...","centrality":0.0174,"connection_count":5,"signal_count":0,"evidence_tier":"credible"},{"id":142,"name":"Black Cube","entity_type":"organization","lat":32.0853,"lon":34.7818,"description":"Black Cube (BC Strategy Ltd). Private intelligence firm founded in 2010 by former Israeli intelligence officers Dan Zorella and Avi Yanus. Based in London, Tel Aviv, and Madrid. Staffed by former members of Mossad and Aman (Israeli military intelligence). Board included former Mossad director Mei...","centrality":0.0174,"connection_count":5,"signal_count":0,"evidence_tier":"credible"},{"id":64,"name":"Southern Air Transport","entity_type":"organization","lat":25.7959,"lon":-80.287,"description":"CIA front airline. Iran-Contra arms/drugs flights. Ohio taxpayer subsidies at Wexner's behest. Bankruptcy same day as CIA IG report.","centrality":0.0174,"connection_count":5,"signal_count":0,"evidence_tier":"credible"},{"id":156,"name":"9 East 71st Street","entity_type":"facility","lat":40.7719,"lon":-73.9639,"description":"9 East 71st Street. The Herbert N. Straus House, a seven-story neo-French Renaissance mansion on Manhattan's Upper East Side. One of the largest private residences in New York City, valued at approximately $77 million.\n\nOWNERSHIP HISTORY: Originally built in 1932. Occupied by the Birch Wathen Sch...","centrality":0.0139,"connection_count":4,"signal_count":0,"evidence_tier":"documented"},{"id":61,"name":"Hill & Knowlton","entity_type":"organization","lat":40.7527,"lon":-73.9818,"description":"PR firm led by Robert Keith Gray. Used as cover for CIA influence operations.","centrality":0.0139,"connection_count":4,"signal_count":1,"evidence_tier":"credible"},{"id":67,"name":"Carbyne","entity_type":"organization","lat":32.0853,"lon":34.7818,"description":"Israeli emergency call-handling tech company. Co-founded by Ehud Barak. Epstein invested. Potential mass surveillance vector.","centrality":0.0139,"connection_count":4,"signal_count":1,"evidence_tier":"credible"},{"id":63,"name":"Systematics","entity_type":"organization","lat":34.7465,"lon":-92.2896,"description":"Stephens-owned tech firm. Alleged primary vehicle for NSA to implant bugged PROMIS software in banks worldwide.","centrality":0.0139,"connection_count":4,"signal_count":1,"evidence_tier":"credible"},{"id":240,"name":"Elite Model Management","entity_type":"organization","lat":48.8726,"lon":2.3124,"description":"Major international modeling agency founded in Paris by John Casablancas (1972). Became one of the world's most powerful agencies, representing supermodels including Linda Evangelista, Naomi Campbell, and Cindy Crawford.\n\nThe Paris office, run by G\u00e9rald Marie, was the epicenter of systematic abus...","centrality":0.0139,"connection_count":4,"signal_count":0,"evidence_tier":"credible"},{"id":174,"name":"Lippo Group","entity_type":"organization","lat":-6.1751,"lon":106.865,"description":"Lippo Group. Multi-billion-dollar Indonesian conglomerate controlled by the Riady family (Mochtar Riady and his son James Riady). Operations span banking, real estate, manufacturing, insurance, securities, and retail across Southeast Asia.\n\nCHINESE INTELLIGENCE CONNECTION: The 1998 Senate Governm...","centrality":0.0139,"connection_count":4,"signal_count":0,"evidence_tier":"credible"},{"id":75,"name":"Mar-a-Lago","entity_type":"facility","lat":26.6777,"lon":-80.0367,"description":"Mar-a-Lago. Private estate and club in Palm Beach, Florida, owned by Donald Trump since 1985. Site of Trump's claimed ban of Jeffrey Epstein (timing disputed). Epstein's Palm Beach mansion was approximately one mile away. According to court documents and witness testimony, Mar-a-Lago was part of ...","centrality":0.0104,"connection_count":3,"signal_count":0,"evidence_tier":"documented"},{"id":72,"name":"George Town Club","entity_type":"facility","lat":38.9076,"lon":-77.0603,"description":"Washington DC private club. Korean intelligence front per WaPo. Robert Keith Gray was president. Blackmail venue.","centrality":0.0104,"connection_count":3,"signal_count":0,"evidence_tier":"documented"},{"id":251,"name":"BND","entity_type":"agency","lat":52.5131,"lon":13.3651,"description":"Bundesnachrichtendienst \u2014 Germany's foreign intelligence service. Literally created by the CIA.\n\nHistory: The Gehlen Organization was established June 1946 by U.S. occupation authorities, headed by Reinhard Gehlen \u2014 former Wehrmacht Major General and head of Nazi military intelligence on the East...","centrality":0.0104,"connection_count":3,"signal_count":0,"evidence_tier":"credible"},{"id":197,"name":"Crown Prosecution Service","entity_type":"agency","lat":51.5017,"lon":-0.127,"description":"Crown Prosecution Service (CPS). The principal prosecuting authority for criminal cases investigated by the police in England and Wales. Established 1986.\n\nEPSTEIN-RELATED DECISIONS: The CPS reviewed evidence related to Virginia Giuffre's allegations of being trafficked to London for sexual encou...","centrality":0.0104,"connection_count":3,"signal_count":0,"evidence_tier":"credible"},{"id":69,"name":"Apollo Global Management","entity_type":"organization","lat":40.7627,"lon":-73.9736,"description":"Private equity firm co-founded by Leon Black. Paid Epstein $158M in advisory fees.","centrality":0.0104,"connection_count":3,"signal_count":4,"evidence_tier":"credible"},{"id":115,"name":"Kissinger Associates","entity_type":"organization","lat":40.7587,"lon":-73.9706,"description":"International geopolitical consulting firm founded by Henry Kissinger in 1982 and headquartered in New York City. The firm provided strategic advisory services to multinational corporations navigating global political risks. Key members included Brent Scowcroft (president, former NSA), Lawrence E...","centrality":0.0104,"connection_count":3,"signal_count":0,"evidence_tier":"credible"},{"id":62,"name":"Rose Law Firm","entity_type":"organization","lat":34.7465,"lon":-92.2896,"description":"Arkansas law firm (Hillary Clinton partner). Represented Systematics AND assisted BCCI's US entry.","centrality":0.0104,"connection_count":3,"signal_count":0,"evidence_tier":"credible"},{"id":74,"name":"Resorts International","entity_type":"organization","lat":39.3643,"lon":-74.4229,"description":"Resorts International. Casino and resort company with documented intelligence community connections. Founded by James Crosby, who established Intertel (International Intelligence Inc.) as its security arm \u2014 staffed by former FBI, CIA, and NSA personnel. Historical connections to Meyer Lansky's ga...","centrality":0.0104,"connection_count":3,"signal_count":1,"evidence_tier":"credible"},{"id":71,"name":"Glencore","entity_type":"organization","lat":47.1934,"lon":8.5166,"description":"Commodities giant founded by Marc Rich. Partially owned by Nathaniel Rothschild.","centrality":0.0104,"connection_count":3,"signal_count":1,"evidence_tier":"credible"},{"id":73,"name":"Bayrock Group","entity_type":"organization","lat":40.7614,"lon":-73.9776,"description":"Bayrock Group LLC. Real estate development company headquartered in Trump Tower. Founded by Tevfik Arif, a former Soviet-era government official from Kazakhstan. Felix Sater served as managing director. Partnered with the Trump Organization on Trump SoHo and multiple other projects. Connected to ...","centrality":0.0104,"connection_count":3,"signal_count":0,"evidence_tier":"credible"},{"id":130,"name":"Towers Financial","entity_type":"organization","lat":40.758,"lon":-73.9717,"description":"Towers Financial Corporation. New York debt collection agency founded by Steven Hoffenberg that operated as the largest Ponzi scheme in American history prior to Bernie Madoff, defrauding investors of $475 million between 1988 and 1993. Jeffrey Epstein was hired by Hoffenberg in 1987 at $25,000 p...","centrality":0.0104,"connection_count":3,"signal_count":0,"evidence_tier":"credible"},{"id":131,"name":"Seagram","entity_type":"organization","lat":40.758,"lon":-73.975,"description":"Seagram Company Ltd. One of the world's largest beverage companies, built by the Bronfman family. Founded as Distillers Corporation by Samuel Bronfman in Montreal in 1924, acquiring Joseph E. Seagram & Sons in 1928. The Bronfman fortune originated during American Prohibition, when the family lega...","centrality":0.0104,"connection_count":3,"signal_count":0,"evidence_tier":"credible"},{"id":55,"name":"First American Bank","entity_type":"organization","lat":38.9035,"lon":-77.0429,"description":"Largest DC bank holding company. Secretly owned by BCCI via CIA asset front-men. Fed never told despite CIA knowledge.","centrality":0.0104,"connection_count":3,"signal_count":1,"evidence_tier":"credible"},{"id":195,"name":"Pergamon Press","entity_type":"organization","lat":51.752,"lon":-1.2577,"description":"Pergamon Press. Scientific publishing house founded by Robert Maxwell in 1951. Published hundreds of academic journals and became one of the world's largest scientific publishers before being sold to Elsevier in 1991.\n\nINTELLIGENCE COVER: Multiple investigative accounts (Gordon Thomas, John Prest...","centrality":0.0104,"connection_count":3,"signal_count":0,"evidence_tier":"credible"},{"id":157,"name":"MCC New York","entity_type":"facility","lat":40.7149,"lon":-74.001,"description":"Metropolitan Correctional Center, New York. Federal detention facility in Lower Manhattan operated by the Bureau of Prisons. The facility where Jeffrey Epstein was found dead on August 10, 2019, while awaiting trial on sex trafficking charges.\n\nEPSTEIN'S DEATH: Epstein was found unresponsive in h...","centrality":0.0069,"connection_count":2,"signal_count":0,"evidence_tier":"documented"},{"id":242,"name":"DGSE","entity_type":"agency","lat":48.8337,"lon":2.3835,"description":"Direction G\u00e9n\u00e9rale de la S\u00e9curit\u00e9 Ext\u00e9rieure \u2014 France's foreign intelligence service, responsible for military intelligence and counterintelligence outside French borders. Established April 2, 1982, when President Mitterrand reformed and renamed the SDECE.\n\nDGSE's predecessor, the SDECE (Service ...","centrality":0.0069,"connection_count":2,"signal_count":0,"evidence_tier":"credible"},{"id":60,"name":"In-Q-Tel","entity_type":"organization","lat":38.8807,"lon":-77.106,"description":"CIA venture capital arm. Founded 1999. Funded companies that became core surveillance infrastructure.","centrality":0.0069,"connection_count":2,"signal_count":1,"evidence_tier":"credible"},{"id":65,"name":"The Limited","entity_type":"organization","lat":40.0848,"lon":-82.8968,"description":"Les Wexner's retail empire. Used SAT for shipping. Victoria's Secret, Bath & Body Works.","centrality":0.0069,"connection_count":2,"signal_count":3,"evidence_tier":"credible"},{"id":143,"name":"Victoria's Secret","entity_type":"organization","lat":40.0848,"lon":-82.8968,"description":"Victoria's Secret. Lingerie brand owned by Les Wexner's L Brands (The Limited). Epstein exploited his relationship with Wexner to pose as a Victoria's Secret talent recruiter, using business cards identifying himself as a VS scout. Multiple victims reported being lured by promises of modeling wor...","centrality":0.0069,"connection_count":2,"signal_count":0,"evidence_tier":"credible"},{"id":116,"name":"Hollinger International","entity_type":"organization","lat":41.8823,"lon":-87.6254,"description":"Media holding company controlled by Conrad Black that owned the Daily Telegraph, Chicago Sun-Times, and the Jerusalem Post. Its board of directors included Henry Kissinger and Les Wexner. The International Advisory Board was chaired by Margaret Thatcher and included Richard Perle and William F. B...","centrality":0.0069,"connection_count":2,"signal_count":0,"evidence_tier":"credible"},{"id":182,"name":"Kingdom Holding","entity_type":"organization","lat":24.7136,"lon":46.6753,"description":"Kingdom Holding Company (KHC). Saudi investment conglomerate founded by Prince Al-Waleed bin Talal in 1980. Listed on the Saudi stock exchange (Tadawul). A primary vehicle for Saudi royal investment into Western economies.\n\nMAJOR HOLDINGS: Citigroup (Al-Waleed was largest individual shareholder, ...","centrality":0.0069,"connection_count":2,"signal_count":0,"evidence_tier":"credible"},{"id":58,"name":"Bear Stearns","entity_type":"organization","lat":40.7551,"lon":-73.9744,"description":"Epstein's former employer. Served as broker to BCCI \u2014 hidden until 2011 UK Sandstorm Report.","centrality":0.0069,"connection_count":2,"signal_count":1,"evidence_tier":"credible"},{"id":154,"name":"Dalton School","entity_type":"organization","lat":40.7822,"lon":-73.954,"description":"The Dalton School. Elite private school on Manhattan's Upper East Side. Founded in 1919. Significant in the Epstein network because headmaster Donald Barr \u2014 an OSS veteran and father of future Attorney General William Barr \u2014 hired 20-year-old Jeffrey Epstein to teach calculus and physics there in...","centrality":0.0069,"connection_count":2,"signal_count":0,"evidence_tier":"credible"},{"id":275,"name":"New Paradigm Institute","entity_type":"organization","lat":38.9072,"lon":-77.0369,"description":"Founded 2023 by Daniel Sheehan as initiative of the Romero Institute. Mobilizes strategic litigation and legislative advocacy for UAP disclosure. Drafted key provisions of the UAP Disclosure Act. Launched 'Citizens for Disclosure' grassroots campaign in 2024. Serves as public clearinghouse for UA...","centrality":0.0069,"connection_count":2,"signal_count":0,"evidence_tier":"credible"},{"id":277,"name":"Disclosure Project","entity_type":"organization","lat":38.0293,"lon":-78.4767,"description":"Founded by Steven Greer. Organized the landmark May 9, 2001 National Press Club event in Washington, D.C., where 20+ military, government, intelligence, and corporate witnesses testified about UFO/UAP encounters. Daniel Sheehan served as general counsel. Called for open congressional hearings and...","centrality":0.0069,"connection_count":2,"signal_count":0,"evidence_tier":"credible"},{"id":196,"name":"Mirror Group Newspapers","entity_type":"organization","lat":51.5256,"lon":-0.0776,"description":"Mirror Group Newspapers (MGN). British newspaper publisher owned by Robert Maxwell from 1984 until his death in 1991. Published the Daily Mirror, Sunday Mirror, and The People \u2014 major UK tabloids with millions of daily readers.\n\nPENSION FRAUD: After Maxwell's death in November 1991, it was discov...","centrality":0.0069,"connection_count":2,"signal_count":0,"evidence_tier":"credible"},{"id":183,"name":"Saudi Binladin Group","entity_type":"organization","lat":21.5433,"lon":39.1728,"description":"Saudi Binladin Group (SBG). Saudi Arabia's largest construction company, founded by Mohammed bin Awad bin Laden (Osama bin Laden's father) in 1931. Multi-billion dollar conglomerate with exclusive contracts for Saudi holy sites (Mecca and Medina).\n\nBIN LADEN FAMILY: The family (50+ children of Mo...","centrality":0.0069,"connection_count":2,"signal_count":0,"evidence_tier":"credible"},{"id":201,"name":"TerraMar Project","entity_type":"organization","lat":40.758,"lon":-73.9717,"description":"The TerraMar Project. Ocean conservation nonprofit founded by Ghislaine Maxwell in 2012. Claimed to advocate for protection of international waters and marine biodiversity. Maxwell served as founder and public face.\n\nMaxwell spoke at United Nations events and used TerraMar to cultivate relationsh...","centrality":0.0069,"connection_count":2,"signal_count":0,"evidence_tier":"credible"},{"id":278,"name":"Americans for Safe Aerospace","entity_type":"organization","lat":38.9007,"lon":-77.0302,"description":"Founded by Ryan Graves. Advocacy organization focused on flight safety and UAP reporting mechanisms for military and commercial pilots. Provides a secure channel for pilots to report anomalous encounters without career repercussions.","centrality":0.0035,"connection_count":1,"signal_count":0,"evidence_tier":"credible"},{"id":287,"name":"Klaus Schwab","entity_type":"person","lat":46.226,"lon":6.1866,"description":"German engineer, economist, and founder of the World Economic Forum (1971). Executive Chairman of WEF from founding until transitioning leadership to Brende. Architect of the 'Great Reset' initiative and 'Fourth Industrial Revolution' framework. Under Schwab's leadership, Davos became the premier...","centrality":0.0035,"connection_count":1,"signal_count":0,"evidence_tier":"inference"}]