[{"id":1,"name":"Jeffrey Epstein","entity_type":"person","lat":40.7719,"lon":-73.9639,"description":"Jeffrey Edward Epstein (1953-2019). Financier, convicted sex offender, and intelligence asset whose network connected Wall Street, government, and intelligence services across multiple countries.\n\nEARLY CAREER: Hired in 1974 to teach calculus and physics at the Dalton School in Manhattan by headm...","centrality":0.1663,"connection_count":82,"signal_count":0,"evidence_tier":"inference"},{"id":85,"name":"CIA","entity_type":"agency","lat":38.9517,"lon":-77.1467,"description":"Central Intelligence Agency. Created by National Security Act 1947. MKULTRA, BCCI banking, Iran-Contra, sexual blackmail operations documented.","centrality":0.1298,"connection_count":64,"signal_count":0,"evidence_tier":"documented"},{"id":33,"name":"Donald Trump","entity_type":"person","lat":26.6777,"lon":-80.0367,"description":"Donald John Trump (b. 1946). 45th and 47th President of the United States. Real estate developer and media figure whose career intersects organized crime, intelligence operations, and the Epstein network through decades of documented connections.\n\nROY COHN MENTORSHIP (1973-1986): Retained attorne...","centrality":0.073,"connection_count":36,"signal_count":0,"evidence_tier":"inference"},{"id":2,"name":"Ghislaine Maxwell","entity_type":"person","lat":40.7677,"lon":-73.965,"description":"Ghislaine Noelle Marion Maxwell (b. 1961). Convicted sex trafficker, socialite, and intelligence network connector. Daughter of Robert Maxwell, documented Mossad asset.\n\nFAMILY BACKGROUND: Father Robert Maxwell (born Jan Ludvik Hoch) was a British media mogul and documented Israeli intelligence a...","centrality":0.0527,"connection_count":26,"signal_count":0,"evidence_tier":"inference"},{"id":88,"name":"Mossad","entity_type":"agency","lat":32.049,"lon":34.7625,"description":"Israeli intelligence service. Robert Maxwell asset. Epstein identified as co-opted agent. PROMIS distribution.","centrality":0.0467,"connection_count":23,"signal_count":0,"evidence_tier":"credible"},{"id":32,"name":"Bill Clinton","entity_type":"person","lat":34.7465,"lon":-92.2896,"description":"Arkansas Governor, later President. Sent AR National Guard to Honduras. Pardoned Marc Rich. Epstein flight logs document 26+ flights on Epstein's aircraft.","centrality":0.0446,"connection_count":22,"signal_count":0,"evidence_tier":"inference"},{"id":87,"name":"FBI","entity_type":"agency","lat":38.8977,"lon":-77.0248,"description":"Federal Bureau of Investigation. COINTELPRO. Hoover compromised by Lansky. CHS memo on Epstein.","centrality":0.0385,"connection_count":19,"signal_count":0,"evidence_tier":"documented"},{"id":3,"name":"Robert Maxwell","entity_type":"person","lat":51.5256,"lon":-0.0776,"description":"Media mogul, Mossad asset. Sold PROMIS software backdoored by Israeli intelligence to governments worldwide. Died 1991.","centrality":0.0345,"connection_count":17,"signal_count":0,"evidence_tier":"inference"},{"id":54,"name":"BCCI","entity_type":"organization","lat":51.5127,"lon":-0.0891,"description":"Bank of Credit and Commerce International. CIA's criminal banking arm. Secretly owned First American Bank. Shut down 1991.","centrality":0.0325,"connection_count":16,"signal_count":0,"evidence_tier":"credible"},{"id":57,"name":"Deutsche Bank","entity_type":"organization","lat":50.11,"lon":8.6703,"description":"Maintained Epstein accounts via Butterfly Trust structure. Settled $75M with NYDFS in 2020. Provided $340M+ in loans to Trump after all other US banks refused. Fined for Russian mirror trading/money laundering scheme.","centrality":0.0284,"connection_count":14,"signal_count":0,"evidence_tier":"credible"},{"id":4,"name":"Les Wexner","entity_type":"person","lat":40.0848,"lon":-82.8968,"description":"Leslie Herbert Wexner (b. 1937). Founder of L Brands (The Limited, Victoria's Secret, Bath & Body Works, Abercrombie & Fitch). Richest man in Ohio. Mega Group co-founder. Central figure in the Epstein network through an unprecedented financial relationship.\n\nEPSTEIN RELATIONSHIP: Granted Jeffrey ...","centrality":0.0284,"connection_count":14,"signal_count":0,"evidence_tier":"inference"},{"id":111,"name":"Henry Kissinger","entity_type":"person","lat":40.7587,"lon":-73.9706,"description":"Heinz Alfred 'Henry' Kissinger (1923-2023). German-born American diplomat who served as National Security Advisor (1969-1975) and Secretary of State (1973-1977) under Presidents Nixon and Ford \u2014 the only person to hold both positions simultaneously. Nobel Peace Prize laureate (1973) for Vietnam n...","centrality":0.0284,"connection_count":14,"signal_count":0,"evidence_tier":"inference"},{"id":108,"name":"Prince Andrew","entity_type":"person","lat":51.4194,"lon":-0.6052,"description":"Andrew Albert Christian Edward Mountbatten-Windsor (born 1960), formerly styled Prince Andrew, Duke of York. Third child and second son of Queen Elizabeth II. Served in the Royal Navy 1979-2001, including as a helicopter pilot during the Falklands War.\n\nEPSTEIN CONNECTION: Andrew stated he met Ep...","centrality":0.0284,"connection_count":14,"signal_count":0,"evidence_tier":"inference"},{"id":89,"name":"DOJ","entity_type":"agency","lat":38.8934,"lon":-77.0249,"description":"Department of Justice. Stole PROMIS from INSLAW. Epstein NPA. BCCI non-notification from CIA.","centrality":0.0243,"connection_count":12,"signal_count":0,"evidence_tier":"documented"},{"id":145,"name":"Virginia Giuffre","entity_type":"person","lat":26.7056,"lon":-80.0364,"description":"Virginia Louise Giuffre, nee Roberts (1983-2025). The most prominent survivor and witness in the Jeffrey Epstein sex trafficking case. Her public testimony, civil lawsuits, and advocacy fundamentally shaped public knowledge of the Epstein operation.\n\nBACKGROUND: Born August 9, 1983, in Sacramento...","centrality":0.0243,"connection_count":12,"signal_count":0,"evidence_tier":"inference"},{"id":135,"name":"Jean-Luc Brunel","entity_type":"person","lat":48.8566,"lon":2.3522,"description":"Jean-Luc Brunel (1946-2022). French model scout, agency founder, and accused sex trafficker. Epstein's primary modeling industry pipeline who funneled young women into the trafficking network through the legitimate facade of fashion recruitment.\n\nMODELING CAREER: Born in Neuilly-sur-Seine, France...","centrality":0.0243,"connection_count":12,"signal_count":0,"evidence_tier":"inference"},{"id":86,"name":"NSA","entity_type":"agency","lat":39.1086,"lon":-76.7714,"description":"National Security Agency. PROMIS/Systematics connection. Watch list included Church Committee members.","centrality":0.0203,"connection_count":10,"signal_count":0,"evidence_tier":"documented"},{"id":18,"name":"Meyer Lansky","entity_type":"person","lat":25.7907,"lon":-80.13,"description":"Meyer Suchowljansky (1902-1983). 'The Mob's Accountant.' Architect of the National Crime Syndicate and the most important bridge node between organized crime and the intelligence apparatus.\n\nNATIONAL CRIME SYNDICATE: With Lucky Luciano, Lansky created the organizational model for American organiz...","centrality":0.0203,"connection_count":10,"signal_count":0,"evidence_tier":"inference"},{"id":66,"name":"Mega Group","entity_type":"organization","lat":40.758,"lon":-73.9717,"description":"Secretive group of billionaire pro-Israel donors. Co-founded by Wexner and Charles Bronfman. Epstein attended meetings.","centrality":0.0183,"connection_count":9,"signal_count":0,"evidence_tier":"credible"},{"id":176,"name":"Carlyle Group","entity_type":"organization","lat":38.9072,"lon":-77.0558,"description":"The Carlyle Group. Washington, D.C.-based global private equity firm founded in 1987 by David Rubenstein, William Conway Jr., and Daniel D'Aniello. One of the world's largest alternative asset managers, with over $300 billion in assets under management.\n\nSAUDI-BUSH NEXUS: The Carlyle Group became...","centrality":0.0183,"connection_count":9,"signal_count":0,"evidence_tier":"inference"},{"id":76,"name":"Little Saint James","entity_type":"facility","lat":18.2999,"lon":-64.8257,"description":"Little Saint James. Private island in the US Virgin Islands owned by Jeffrey Epstein from 1998 until his death. Also known as 'Pedophile Island' or 'Epstein Island.' Site of a mysterious temple-like structure, staff quarters, and underground facilities documented in aerial photographs and drone f...","centrality":0.0162,"connection_count":8,"signal_count":0,"evidence_tier":"documented"},{"id":207,"name":"MSS","entity_type":"agency","lat":32.1632,"lon":34.7916,"description":"Ministry of State Security (Guojia Anquan Bu, MSS). The People's Republic of China's intelligence, security, and secret police agency. Established in 1983 by merging the Central Investigation Department with counterintelligence elements of the Ministry of Public Security.\n\nFUNCTION: A DOJ documen...","centrality":0.0162,"connection_count":8,"signal_count":0,"evidence_tier":"credible"},{"id":5,"name":"Ehud Barak","entity_type":"person","lat":32.0853,"lon":34.7818,"description":"Former Israeli PM and IDF Chief of Staff. Visited Epstein's residences. Wexner Foundation paid $2M for vague 'research.' Carbyne co-founder.","centrality":0.0162,"connection_count":8,"signal_count":0,"evidence_tier":"inference"},{"id":53,"name":"Rafi Eitan","entity_type":"person","lat":32.0684,"lon":34.7916,"description":"Rafael 'Rafi' Eitan (1926-2019). Legendary Israeli intelligence operative. Led the team that captured Adolf Eichmann in Buenos Aires (1960). Ran Jonathan Pollard as a spy inside the US Navy (1984-85). Worked directly with Meyer Lansky on arms smuggling for the Haganah (pre-IDF) using waterfront a...","centrality":0.0162,"connection_count":8,"signal_count":0,"evidence_tier":"inference"},{"id":243,"name":"George W. Bush","entity_type":"person","lat":48.8717,"lon":2.2888,"description":"43rd President (2001-09). Bohemian Club member. Drove Iraq invasion alongside fellow Club members Cheney, Rumsfeld, and Powell \u2014 Bechtel Corporation (led by fellow members) received hundreds of millions in reconstruction contracts.","centrality":0.0142,"connection_count":7,"signal_count":0,"evidence_tier":"documented"},{"id":90,"name":"DARPA","entity_type":"agency","lat":38.8806,"lon":-77.1085,"description":"Defense Advanced Research Projects Agency. Ran Total Information Awareness program. LifeLog program.","centrality":0.0142,"connection_count":7,"signal_count":0,"evidence_tier":"documented"},{"id":161,"name":"Jonathan Pollard","entity_type":"person","lat":55.7601,"lon":37.6261,"description":"Jonathan Jay Pollard (born 1954, Galveston, Texas). Former U.S. Navy civilian intelligence analyst convicted of spying for Israel in 1987. Served 30 years in federal prison \u2014 the longest sentence ever imposed for spying for a U.S. ally.\n\nTHE OPERATION: Pollard was recruited by LAKAM (Bureau of Sc...","centrality":0.0142,"connection_count":7,"signal_count":0,"evidence_tier":"credible"},{"id":141,"name":"MC2 Model Management","entity_type":"organization","lat":25.775,"lon":-80.1868,"description":"MC2 Model Management. Modeling agency founded in 2005 by Jean-Luc Brunel with up to $1 million in funding from Jeffrey Epstein. The name was an inside reference to Einstein's E=MC2 equation, with 'E' standing for Epstein. Operated offices in New York City and Miami. Served as a legitimate commerc...","centrality":0.0142,"connection_count":7,"signal_count":0,"evidence_tier":"credible"},{"id":183,"name":"MI6","entity_type":"agency","lat":21.5433,"lon":39.1728,"description":"Secret Intelligence Service (SIS/MI6). The United Kingdom's foreign intelligence agency. Established 1909. Responsible for collecting foreign intelligence in support of UK national security and economic well-being.\n\nMAXWELL CONNECTION: Multiple investigative accounts (Gordon Thomas, Seymour Hersh...","centrality":0.0142,"connection_count":7,"signal_count":0,"evidence_tier":"credible"},{"id":11,"name":"Roy Cohn","entity_type":"person","lat":40.7625,"lon":-73.971,"description":"Roy Marcus Cohn (1927-1986). Attorney, political fixer, and sexual blackmail operator who served as a nexus between organized crime, intelligence agencies, and political power for three decades.\n\nMCCARTHY ERA: Chief counsel to Senator Joseph McCarthy's investigations. Prosecuted Julius and Ethel ...","centrality":0.0142,"connection_count":7,"signal_count":0,"evidence_tier":"inference"},{"id":134,"name":"Harvey Weinstein","entity_type":"person","lat":40.7195,"lon":-74.0089,"description":"Harvey Weinstein (b. 1952). Co-founder of Miramax Films and The Weinstein Company. Convicted sex offender whose decades-long pattern of sexual assault, coercion, and surveillance-based intimidation parallels the Epstein operation's blackmail methodology.\n\nCAREER: Co-founded Miramax Films with bro...","centrality":0.0142,"connection_count":7,"signal_count":0,"evidence_tier":"inference"},{"id":265,"name":"Islamic Revolutionary Guard Corps","entity_type":"agency","lat":38.0293,"lon":-78.4767,"description":"Iran's primary paramilitary force, established 1979 after the Islamic Revolution. Reports directly to the Supreme Leader. Controls Iran's ballistic missile program (IRGC Aerospace Force), naval forces in the Persian Gulf (IRGC Navy), ground forces, and the Quds Force for external operations. Desi...","centrality":0.0142,"connection_count":7,"signal_count":0,"evidence_tier":"inference"},{"id":119,"name":"Charles Bronfman","entity_type":"person","lat":40.7614,"lon":-73.9706,"description":"Charles Rosner Bronfman (b. 1931). Canadian-American billionaire businessman, philanthropist, and co-founder of the Mega Group with Les Wexner.\n\nSEAGRAM EMPIRE: Son of Samuel Bronfman, who built the Seagram spirits empire during and after American Prohibition. Samuel Bronfman's Distillers Corpora...","centrality":0.0142,"connection_count":7,"signal_count":0,"evidence_tier":"inference"},{"id":309,"name":"World Economic Forum","entity_type":"organization","lat":25.5,"lon":57.0,"description":"International non-governmental organization founded in 1971 by Klaus Schwab, headquartered in Cologny, Geneva, Switzerland. Hosts the annual Davos meeting \u2014 the world's premier gathering of political leaders, CEOs, central bankers, and billionaires. Known for shaping global policy through public-...","centrality":0.0142,"connection_count":7,"signal_count":0,"evidence_tier":"credible"},{"id":242,"name":"George H.W. Bush","entity_type":"person","lat":48.8337,"lon":2.3835,"description":"41st President (1989-93), former CIA Director (1976-77). Bohemian Club member. Appointed William Barr as Attorney General (1991). Father of George W. Bush. Key node connecting intelligence community to the Grove's political elite.","centrality":0.0122,"connection_count":6,"signal_count":0,"evidence_tier":"credible"},{"id":178,"name":"Safari Club","entity_type":"organization","lat":24.6949,"lon":46.7241,"description":"The Safari Club (1976-early 1980s). An informal, secret alliance of intelligence agencies formed after the Church Committee hearings (1975) severely curtailed CIA covert operations. Named after the Safari Club resort in Kenya where early meetings were held.\n\nMEMBERS: French SDECE (led by Alexandr...","centrality":0.0122,"connection_count":6,"signal_count":0,"evidence_tier":"credible"},{"id":56,"name":"JPMorgan Chase","entity_type":"organization","lat":40.758,"lon":-73.9713,"description":"Processed 4,725 suspicious Epstein-related wires totaling $1.1B. Settled $290M in 2023.","centrality":0.0122,"connection_count":6,"signal_count":0,"evidence_tier":"credible"},{"id":195,"name":"Vladimir Putin","entity_type":"person","lat":51.752,"lon":-1.2577,"description":"Vladimir Vladimirovich Putin (born 1952). President of the Russian Federation (2000-2008, 2012-present), Prime Minister (1999-2000, 2008-2012). Career intelligence officer in the KGB (1975-1991), stationed in Dresden, East Germany coordinating with the Stasi. Resigned from KGB with rank of Lieute...","centrality":0.0122,"connection_count":6,"signal_count":0,"evidence_tier":"credible"},{"id":27,"name":"Adnan Khashoggi","entity_type":"person","lat":36.51,"lon":-4.8829,"description":"Saudi arms dealer. Iran-Contra middleman. BCCI Monte Carlo client. Connected to Epstein network.","centrality":0.0122,"connection_count":6,"signal_count":0,"evidence_tier":"inference"},{"id":160,"name":"Ari Ben-Menashe","entity_type":"person","lat":55.752,"lon":37.6175,"description":"Ari Ben-Menashe (born 1951, Tehran, Iran). Former Israeli military intelligence (Aman) officer who served from 1977 to 1987. Author of 'Profits of War: Inside the Secret U.S.-Israeli Arms Network' (1992), a detailed account of Israeli intelligence operations including arms deals with Iran.\n\nKEY T...","centrality":0.0122,"connection_count":6,"signal_count":0,"evidence_tier":"inference"},{"id":8,"name":"William Barr","entity_type":"person","lat":38.8934,"lon":-77.0249,"description":"William Pelham Barr (b. 1950). US Attorney General under George H.W. Bush (1991-1993) and Donald Trump (2019-2020). Connected to multiple cover-ups spanning three decades.\n\nFAMILY CONNECTION TO EPSTEIN: Father Donald Barr was headmaster at the Dalton School when he hired 20-year-old Jeffrey Epste...","centrality":0.0122,"connection_count":6,"signal_count":0,"evidence_tier":"inference"},{"id":39,"name":"John Gotti","entity_type":"person","lat":40.6575,"lon":-73.8437,"description":"John Joseph Gotti Jr. (1940-2002). 'The Teflon Don' and 'The Dapper Don.' Boss of the Gambino crime family from 1985 until his conviction in 1992.\n\nRISE TO POWER: On December 16, 1985, Gotti orchestrated the assassination of Gambino boss Paul Castellano outside Sparks Steak House in midtown Manha...","centrality":0.0122,"connection_count":6,"signal_count":0,"evidence_tier":"inference"},{"id":42,"name":"John Stanfa","entity_type":"person","lat":39.9526,"lon":-75.1652,"description":"Giovanni Stanfa (b. 1940). Boss of the Philadelphia crime family from 1991 to 1994, installed with Gambino family backing after the Scarfo era. Born in Caccamo, Sicily. Was the driver for Angelo Bruno on the night of his 1980 assassination \u2014 a bullet grazed Stanfa's shoulder, but he was later cle...","centrality":0.0122,"connection_count":6,"signal_count":0,"evidence_tier":"inference"},{"id":124,"name":"Jes Staley","entity_type":"person","lat":40.758,"lon":-73.9713,"description":"James Edward 'Jes' Staley (b. 1956). Senior JPMorgan executive whose deep personal relationship with Jeffrey Epstein was documented in over 1,200 emails, including apparent coded references to young women using Disney princess names.\n\nJPMORGAN CAREER: Joined Morgan Guaranty Trust in 1979 after gr...","centrality":0.0122,"connection_count":6,"signal_count":0,"evidence_tier":"inference"},{"id":129,"name":"Tom Barrack","entity_type":"person","lat":34.0549,"lon":-118.2578,"description":"Thomas Joseph Barrack Jr. (b. 1947). Private equity billionaire, founder of Colony Capital, Donald Trump's longest-serving confidant, and a figure whose Middle East financial connections intersect with the Epstein network.\n\nBACKGROUND: Grandparents were Lebanese Maronite Christians who immigrated...","centrality":0.0122,"connection_count":6,"signal_count":0,"evidence_tier":"inference"},{"id":155,"name":"Zorro Ranch","entity_type":"facility","lat":34.8889,"lon":-105.8578,"description":"Zorro Ranch. A 10,000-acre private property located near Stanley, New Mexico, approximately 30 miles southeast of Santa Fe. Owned by Jeffrey Epstein from the early 1990s until his death in 2019. Approximately 1,200 acres were leased from the New Mexico State Land Commission.\n\nVirginia Giuffre tes...","centrality":0.0101,"connection_count":5,"signal_count":0,"evidence_tier":"documented"},{"id":197,"name":"Semion Mogilevich","entity_type":"person","lat":51.5017,"lon":-0.127,"description":"Semion Yudkovich Mogilevich (born 1946, Kyiv, Ukrainian SSR). Known as the 'Boss of Bosses' of Russian organized crime. FBI Ten Most Wanted Fugitives list (2009-2015). Indicted by DOJ in 2003 on 45 counts of racketeering, fraud, and money laundering related to a $150M stock fraud scheme through Y...","centrality":0.0101,"connection_count":5,"signal_count":0,"evidence_tier":"credible"},{"id":59,"name":"Palantir Technologies","entity_type":"organization","lat":39.7539,"lon":-104.9994,"description":"Data analytics firm co-founded by Peter Thiel. Major CIA/NSA/military contractor. Successor to TIA capabilities.","centrality":0.0101,"connection_count":5,"signal_count":0,"evidence_tier":"credible"},{"id":184,"name":"Jimmy Savile","entity_type":"person","lat":38.9044,"lon":-77.0398,"description":"Sir James Wilson Vincent Savile OBE KCSG (1926-2011). English DJ, television presenter, and charity fundraiser. Host of BBC's 'Jim'll Fix It' (1975-1994) and 'Top of the Pops.' Knighted in 1990. Awarded Papal knighthood (KCSG) in 1990.\n\nSEXUAL ABUSE: After his death in 2011, hundreds of allegatio...","centrality":0.0101,"connection_count":5,"signal_count":0,"evidence_tier":"credible"},{"id":182,"name":"MI5","entity_type":"agency","lat":24.7136,"lon":46.6753,"description":"Security Service (MI5). The United Kingdom's domestic counter-intelligence and security agency. Established 1909. Responsible for protecting the UK against threats to national security including espionage, terrorism, and subversion.\n\nMAXWELL CONNECTION: MI5 held files on Robert Maxwell from at le...","centrality":0.0101,"connection_count":5,"signal_count":0,"evidence_tier":"credible"},{"id":196,"name":"FSB","entity_type":"agency","lat":51.5256,"lon":-0.0776,"description":"Federal Security Service of the Russian Federation (Federalnaya Sluzhba Bezopasnosti). Domestic intelligence and security agency, primary successor to the KGB's Second Chief Directorate (counterintelligence) and Fifth Directorate (dissidents). Established 1995.\n\nPutin served as FSB Director from ...","centrality":0.0101,"connection_count":5,"signal_count":0,"evidence_tier":"credible"},{"id":142,"name":"Black Cube","entity_type":"organization","lat":32.0853,"lon":34.7818,"description":"Black Cube (BC Strategy Ltd). Private intelligence firm founded in 2010 by former Israeli intelligence officers Dan Zorella and Avi Yanus. Based in London, Tel Aviv, and Madrid. Staffed by former members of Mossad and Aman (Israeli military intelligence). Board included former Mossad director Mei...","centrality":0.0101,"connection_count":5,"signal_count":0,"evidence_tier":"credible"},{"id":64,"name":"Southern Air Transport","entity_type":"organization","lat":25.7959,"lon":-80.287,"description":"CIA front airline. Iran-Contra arms/drugs flights. Ohio taxpayer subsidies at Wexner's behest. Bankruptcy same day as CIA IG report.","centrality":0.0101,"connection_count":5,"signal_count":0,"evidence_tier":"credible"},{"id":186,"name":"Metropolitan Police","entity_type":"agency","lat":30.0444,"lon":31.2357,"description":"Metropolitan Police Service (the Met). The territorial police force responsible for law enforcement in Greater London (excluding the City of London). The UK's largest police force, with approximately 34,000 officers.\n\nEPSTEIN INVESTIGATION FAILURE: The Met opened an investigation into Epstein-rel...","centrality":0.0101,"connection_count":5,"signal_count":0,"evidence_tier":"credible"},{"id":10,"name":"William Casey","entity_type":"person","lat":38.9517,"lon":-77.1467,"description":"CIA Director 1981-87. Iran-Contra architect. Daily calls with Roy Cohn. BCCI meetings alleged. Mena/Arkansas operations.","centrality":0.0101,"connection_count":5,"signal_count":0,"evidence_tier":"inference"},{"id":293,"name":"David Grusch","entity_type":"person","lat":35.6997,"lon":51.423,"description":"Former NRO representative to the UAP Task Force (GS-15). Testified before House Oversight Committee on July 26, 2023 that the U.S. possesses a 'multi-decade UAP crash retrieval and reverse-engineering program' and 'non-human biologics.' Based on interviews with 40+ witnesses over four years. His ...","centrality":0.0101,"connection_count":5,"signal_count":0,"evidence_tier":"documented"},{"id":308,"name":"Grusch Congressional Hearing","entity_type":"event","lat":24.5,"lon":60.0,"description":"July 26, 2023: House Oversight Subcommittee on National Security hearing titled 'Unidentified Anomalous Phenomena: Implications on National Security, Public Safety, and Government Transparency.' Witnesses: David Grusch (former NRO/UAPTF), Ryan Graves (Americans for Safe Aerospace), Ret. Cmdr. Dav...","centrality":0.0101,"connection_count":5,"signal_count":0,"evidence_tier":"credible"},{"id":156,"name":"9 East 71st Street","entity_type":"facility","lat":40.7719,"lon":-73.9639,"description":"9 East 71st Street. The Herbert N. Straus House, a seven-story neo-French Renaissance mansion on Manhattan's Upper East Side. One of the largest private residences in New York City, valued at approximately $77 million.\n\nOWNERSHIP HISTORY: Originally built in 1932. Occupied by the Birch Wathen Sch...","centrality":0.0081,"connection_count":4,"signal_count":0,"evidence_tier":"documented"},{"id":172,"name":"Jamal Khashoggi","entity_type":"person","lat":39.9053,"lon":116.3977,"description":"Jamal Ahmad Khashoggi (1958-2018). Saudi journalist, author, and Washington Post columnist. Assassinated on October 2, 2018 inside the Saudi consulate in Istanbul, Turkey.\n\nFAMILY CONNECTION: Jamal Khashoggi was the nephew of Adnan Khashoggi, the Saudi billionaire arms dealer who served as a midd...","centrality":0.0081,"connection_count":4,"signal_count":0,"evidence_tier":"credible"},{"id":205,"name":"Wang Jun","entity_type":"person","lat":32.0684,"lon":34.7916,"description":"Wang Jun (born c. 1941). Son of former Chinese Vice President Wang Zhen. Simultaneously served as Chairman of CITIC (China International Trust and Investment Corporation) and Chairman of Poly Technologies/Poly Group.\n\nCITIC: State-owned investment conglomerate established in 1979 at the direction...","centrality":0.0081,"connection_count":4,"signal_count":0,"evidence_tier":"credible"},{"id":206,"name":"Desmond Shum","entity_type":"person","lat":31.253,"lon":34.7915,"description":"Desmond Shum (born 1968, Shanghai). Chinese-Canadian businessman, real estate developer, and author of 'Red Roulette: An Insider's Story of Wealth, Power, Corruption, and Vengeance in Today's China' (2021). Former husband of Whitney Duan (Duan Weihong), a well-connected Chinese businesswoman with...","centrality":0.0081,"connection_count":4,"signal_count":0,"evidence_tier":"credible"},{"id":67,"name":"Carbyne","entity_type":"organization","lat":32.0853,"lon":34.7818,"description":"Israeli emergency call-handling tech company. Co-founded by Ehud Barak. Epstein invested. Potential mass surveillance vector.","centrality":0.0081,"connection_count":4,"signal_count":0,"evidence_tier":"credible"},{"id":231,"name":"Manuel Noriega","entity_type":"person","lat":38.9034,"lon":-77.0148,"description":"Head of Panamanian military intelligence (G-2) from 1968; de facto ruler of Panama 1983-1989. Born February 11, 1934, Panama City. Died May 29, 2017.\n\nOn CIA payroll from 1971 despite U.S. knowledge of his drug trafficking. CIA Director George H.W. Bush paid Noriega $110,000 in 1976. Carter suspe...","centrality":0.0081,"connection_count":4,"signal_count":0,"evidence_tier":"credible"},{"id":63,"name":"Systematics","entity_type":"organization","lat":34.7465,"lon":-92.2896,"description":"Stephens-owned tech firm. Alleged primary vehicle for NSA to implant bugged PROMIS software in banks worldwide.","centrality":0.0081,"connection_count":4,"signal_count":0,"evidence_tier":"credible"},{"id":173,"name":"Al-Waleed bin Talal","entity_type":"person","lat":39.9192,"lon":116.4614,"description":"Prince Al-Waleed bin Talal Al Saud (born 1955). Saudi billionaire investor, grandson of the founder of Saudi Arabia (King Abdulaziz) and of Riad El-Solh (Lebanon's first Prime Minister). Known as 'the Warren Buffett of the Middle East.' Forbes estimated net worth peaked at $20+ billion.\n\nKINGDOM ...","centrality":0.0081,"connection_count":4,"signal_count":0,"evidence_tier":"credible"},{"id":201,"name":"John Huang","entity_type":"person","lat":40.758,"lon":-73.9717,"description":"John Huang (born c. 1945). Taiwanese-American political fundraiser and former U.S. Commerce Department official. Key figure in the 1996 campaign finance controversy.\n\nLIPPO GROUP: Before government service, Huang worked for the Lippo Group, a multi-billion-dollar Indonesian conglomerate controlle...","centrality":0.0081,"connection_count":4,"signal_count":0,"evidence_tier":"credible"},{"id":211,"name":"G\u00e9rald Marie","entity_type":"person","lat":38.8977,"lon":-77.0365,"description":"Head of Elite Model Management's European operations in Paris. One of the most powerful figures in the fashion industry during the 1980s and 1990s. Married to supermodel Linda Evangelista (1987-1993).\n\nAccused of rape and sexual assault by at least 15 women who cooperated with French investigator...","centrality":0.0081,"connection_count":4,"signal_count":0,"evidence_tier":"inference"},{"id":16,"name":"J. Edgar Hoover","entity_type":"person","lat":38.8977,"lon":-77.0248,"description":"FBI Director 1924-1972. Compromised by Lansky photographs. Refused to investigate organized crime for decades.","centrality":0.0081,"connection_count":4,"signal_count":0,"evidence_tier":"inference"},{"id":114,"name":"Sandy Berger","entity_type":"person","lat":38.9007,"lon":-77.0517,"description":"Samuel Richard 'Sandy' Berger (1945-2015). Democratic attorney and political operative who served as Deputy National Security Advisor (1993-1997) and National Security Advisor (1997-2001) under President Clinton. Born in Millerton, New York. Cornell University BA (1967), Harvard Law JD (1971). Co...","centrality":0.0081,"connection_count":4,"signal_count":0,"evidence_tier":"inference"},{"id":37,"name":"Alexander Acosta","entity_type":"person","lat":25.7617,"lon":-80.1918,"description":"Robert Alexander Acosta (b. 1969). US Attorney for the Southern District of Florida (2005-2009). US Secretary of Labor (2017-2019).\n\nAs US Attorney, Acosta negotiated the 2007 Non-Prosecution Agreement with Jeffrey Epstein \u2014 an unprecedented deal that allowed Epstein to plead guilty to state soli...","centrality":0.0081,"connection_count":4,"signal_count":0,"evidence_tier":"inference"},{"id":306,"name":"UAP Disclosure Act","entity_type":"legislation","lat":35.52,"lon":51.77,"description":"Bipartisan legislation led by Schumer (D-NY) and Rounds (R-SD), modeled on the JFK Assassination Records Collection Act. Original version included eminent domain over technologies of unknown origin (TUO) and biological evidence of NHI held by private entities, plus a 9-member UAP Records Review B...","centrality":0.0081,"connection_count":4,"signal_count":0,"evidence_tier":"documented"},{"id":75,"name":"Mar-a-Lago","entity_type":"facility","lat":26.6777,"lon":-80.0367,"description":"Mar-a-Lago. Private estate and club in Palm Beach, Florida, owned by Donald Trump since 1985. Site of Trump's claimed ban of Jeffrey Epstein (timing disputed). Epstein's Palm Beach mansion was approximately one mile away. According to court documents and witness testimony, Mar-a-Lago was part of ...","centrality":0.0061,"connection_count":3,"signal_count":0,"evidence_tier":"documented"},{"id":194,"name":"Newsnight Interview","entity_type":"event","lat":51.4988,"lon":-0.1341,"description":"Prince Andrew Newsnight Interview (November 16, 2019). BBC Newsnight interview conducted by Emily Maitlis with Prince Andrew, Duke of York, regarding his association with Jeffrey Epstein.\n\nKEY CLAIMS: Andrew stated he had 'no recollection' of meeting Virginia Giuffre despite a photograph showing ...","centrality":0.0061,"connection_count":3,"signal_count":0,"evidence_tier":"credible"},{"id":115,"name":"Kissinger Associates","entity_type":"organization","lat":40.7587,"lon":-73.9706,"description":"International geopolitical consulting firm founded by Henry Kissinger in 1982 and headquartered in New York City. The firm provided strategic advisory services to multinational corporations navigating global political risks. Key members included Brent Scowcroft (president, former NSA), Lawrence E...","centrality":0.0061,"connection_count":3,"signal_count":0,"evidence_tier":"credible"},{"id":232,"name":"Felix Rodriguez","entity_type":"person","lat":38.9544,"lon":-77.349,"description":"Cuban-American CIA paramilitary operations officer. Born 1941 in Havana. Career spanning three decades of CIA operations across four continents.\n\nBay of Pigs (1961): entered Cuba clandestinely before the invasion for intelligence gathering. Bolivia (1967): CIA recruited Rodriguez to head the team...","centrality":0.0061,"connection_count":3,"signal_count":0,"evidence_tier":"credible"},{"id":62,"name":"Rose Law Firm","entity_type":"organization","lat":34.7465,"lon":-92.2896,"description":"Arkansas law firm (Hillary Clinton partner). Represented Systematics AND assisted BCCI's US entry.","centrality":0.0061,"connection_count":3,"signal_count":0,"evidence_tier":"credible"},{"id":74,"name":"Resorts International","entity_type":"organization","lat":39.3643,"lon":-74.4229,"description":"Resorts International. Casino and resort company with documented intelligence community connections. Founded by James Crosby, who established Intertel (International Intelligence Inc.) as its security arm \u2014 staffed by former FBI, CIA, and NSA personnel. Historical connections to Meyer Lansky's ga...","centrality":0.0061,"connection_count":3,"signal_count":0,"evidence_tier":"credible"},{"id":240,"name":"Kerry Committee Investigation","entity_type":"event","lat":48.8726,"lon":2.3124,"description":"Senate Subcommittee on Terrorism, Narcotics, and International Operations, chaired by Senator John Kerry. Investigated 1987-1989. Produced a 1,166-page report released April 13, 1989: 'Drugs, Law Enforcement and Foreign Policy.'\n\nKey findings:\n- 'Substantial evidence of drug smuggling... on the p...","centrality":0.0061,"connection_count":3,"signal_count":0,"evidence_tier":"credible"},{"id":73,"name":"Bayrock Group","entity_type":"organization","lat":40.7614,"lon":-73.9776,"description":"Bayrock Group LLC. Real estate development company headquartered in Trump Tower. Founded by Tevfik Arif, a former Soviet-era government official from Kazakhstan. Felix Sater served as managing director. Partnered with the Trump Organization on Trump SoHo and multiple other projects. Connected to ...","centrality":0.0061,"connection_count":3,"signal_count":0,"evidence_tier":"credible"},{"id":130,"name":"Towers Financial","entity_type":"organization","lat":40.758,"lon":-73.9717,"description":"Towers Financial Corporation. New York debt collection agency founded by Steven Hoffenberg that operated as the largest Ponzi scheme in American history prior to Bernie Madoff, defrauding investors of $475 million between 1988 and 1993. Jeffrey Epstein was hired by Hoffenberg in 1987 at $25,000 p...","centrality":0.0061,"connection_count":3,"signal_count":0,"evidence_tier":"credible"},{"id":131,"name":"Seagram","entity_type":"organization","lat":40.758,"lon":-73.975,"description":"Seagram Company Ltd. One of the world's largest beverage companies, built by the Bronfman family. Founded as Distillers Corporation by Samuel Bronfman in Montreal in 1924, acquiring Joseph E. Seagram & Sons in 1928. The Bronfman fortune originated during American Prohibition, when the family lega...","centrality":0.0061,"connection_count":3,"signal_count":0,"evidence_tier":"credible"},{"id":212,"name":"John Casablancas","entity_type":"person","lat":29.7604,"lon":-95.3698,"description":"Founder of Elite Model Management (1972), credited with 'inventing the supermodel.' Born December 12, 1942 in New York to a Spanish family, raised in Europe. Died July 20, 2013 in Rio de Janeiro from cancer.\n\nDocumented relationship with Stephanie Seymour, who was a finalist at the inaugural Elit...","centrality":0.0061,"connection_count":3,"signal_count":0,"evidence_tier":"inference"},{"id":204,"name":"Liu Chaoying","entity_type":"person","lat":38.8719,"lon":-77.0163,"description":"Liu Chaoying (born c. 1962). Former Lieutenant Colonel in the People's Liberation Army and executive at China Aerospace International Holdings (CASIL), the Hong Kong-based subsidiary of China Aerospace Science and Technology Corporation (CASC) \u2014 China's premier satellite launch company.\n\nFAMILY: ...","centrality":0.0061,"connection_count":3,"signal_count":0,"evidence_tier":"inference"},{"id":17,"name":"James Angleton","entity_type":"person","lat":38.9517,"lon":-77.1467,"description":"CIA counterintelligence chief. Held Hoover compromise material. Managed CIA-Mossad relationship.","centrality":0.0061,"connection_count":3,"signal_count":0,"evidence_tier":"inference"},{"id":189,"name":"Crown Prosecution Service","entity_type":"agency","lat":51.5074,"lon":-0.1278,"description":"Crown Prosecution Service (CPS). The principal prosecuting authority for criminal cases investigated by the police in England and Wales. Established 1986.\n\nEPSTEIN-RELATED DECISIONS: The CPS reviewed evidence related to Virginia Giuffre's allegations of being trafficked to London for sexual encou...","centrality":0.0061,"connection_count":3,"signal_count":0,"evidence_tier":"inference"},{"id":203,"name":"Bernard Schwartz","entity_type":"person","lat":45.5017,"lon":-73.5673,"description":"Bernard L. Schwartz (1925-2024). Chairman and CEO of Loral Space & Communications (1972-2006). During the 1996 election cycle, Schwartz was the single largest individual donor to the Democratic Party \u2014 he and his wife contributed $1,122,000, of which $1,089,750 went to Democratic candidates and c...","centrality":0.0061,"connection_count":3,"signal_count":0,"evidence_tier":"inference"},{"id":22,"name":"Marc Rich","entity_type":"person","lat":47.166,"lon":8.5155,"description":"Commodities trader, Mossad's primary oil source for 20 years. Founded Glencore. Pardoned by Clinton.","centrality":0.0061,"connection_count":3,"signal_count":0,"evidence_tier":"inference"},{"id":292,"name":"Luis Elizondo","entity_type":"person","lat":35.705,"lon":51.418,"description":"Former U.S. Army counterintelligence officer and military intelligence official. Claimed to have directed AATIP (Advanced Aerospace Threat Identification Program) at the Pentagon. Resigned October 2017 citing excessive secrecy. Provided three Navy pilot UAP videos to the New York Times, triggerin...","centrality":0.0061,"connection_count":3,"signal_count":0,"evidence_tier":"documented"},{"id":304,"name":"Project Blue Book","entity_type":"program","lat":33.725,"lon":51.727,"description":"Systematic USAF study of UFOs from March 1952 to December 17, 1969, headquartered at Wright-Patterson AFB, Ohio. Preceded by Project Sign (1947-1949) and Project Grudge (1949). Of 12,618 sightings investigated, 701 remained 'unidentified.' Terminated after the Condon Committee report. Daniel Shee...","centrality":0.0061,"connection_count":3,"signal_count":0,"evidence_tier":"documented"},{"id":157,"name":"MCC New York","entity_type":"facility","lat":40.7149,"lon":-74.001,"description":"Metropolitan Correctional Center, New York. Federal detention facility in Lower Manhattan operated by the Bureau of Prisons. The facility where Jeffrey Epstein was found dead on August 10, 2019, while awaiting trial on sex trafficking charges.\n\nEPSTEIN'S DEATH: Epstein was found unresponsive in h...","centrality":0.0041,"connection_count":2,"signal_count":0,"evidence_tier":"documented"},{"id":191,"name":"Stuart Roffey","entity_type":"person","lat":51.4871,"lon":-0.1245,"description":"Stuart Roffey. British businessman named in unsealed Epstein court documents in January 2024. Described in documents as an associate of Ghislaine Maxwell who attended social events in Epstein's orbit.\n\nRoffey appeared in previously sealed depositions from the Giuffre v. Maxwell case. The nature a...","centrality":0.0041,"connection_count":2,"signal_count":0,"evidence_tier":"documented"},{"id":190,"name":"Mark Thompson","entity_type":"person","lat":51.4959,"lon":-0.1264,"description":"Sir Mark John Thompson (born 1957). Director-General of the BBC (2004-2012), subsequently CEO of The New York Times Company (2012-2020), Chairman and CEO of CNN (2022-2024).\n\nSAVILE SCANDAL: Thompson was Director-General of the BBC when the corporation decided to drop a Newsnight investigation in...","centrality":0.0041,"connection_count":2,"signal_count":0,"evidence_tier":"documented"},{"id":251,"name":"Edwin Fuelner","entity_type":"person","lat":52.5131,"lon":13.3651,"description":"Co-founder and longtime president of the Heritage Foundation. On the 2023 Bohemian Grove attendance list (age 82). Launched Project 2025 / Mandate for Leadership 7 at a Heritage event, explicitly referencing 'the first time it all happened' under Reagan. Heritage board member until his death in l...","centrality":0.0041,"connection_count":2,"signal_count":0,"evidence_tier":"credible"},{"id":285,"name":"Hezbollah","entity_type":"organization","lat":46.226,"lon":6.1866,"description":"Lebanese Shia political party and paramilitary organization. Iran's most capable proxy force, armed and funded by the IRGC Quds Force since the 1980s. Designated a terrorist organization by the US, EU, and others. Launched retaliatory rocket and drone barrages against northern Israel in solidarit...","centrality":0.0041,"connection_count":2,"signal_count":0,"evidence_tier":"credible"},{"id":60,"name":"In-Q-Tel","entity_type":"organization","lat":38.8807,"lon":-77.106,"description":"CIA venture capital arm. Founded 1999. Funded companies that became core surveillance infrastructure.","centrality":0.0041,"connection_count":2,"signal_count":0,"evidence_tier":"credible"},{"id":65,"name":"The Limited","entity_type":"organization","lat":40.0848,"lon":-82.8968,"description":"Les Wexner's retail empire. Used SAT for shipping. Victoria's Secret, Bath & Body Works.","centrality":0.0041,"connection_count":2,"signal_count":0,"evidence_tier":"credible"},{"id":143,"name":"Victoria's Secret","entity_type":"organization","lat":40.0848,"lon":-82.8968,"description":"Victoria's Secret. Lingerie brand owned by Les Wexner's L Brands (The Limited). Epstein exploited his relationship with Wexner to pose as a Victoria's Secret talent recruiter, using business cards identifying himself as a VS scout. Multiple victims reported being lured by promises of modeling wor...","centrality":0.0041,"connection_count":2,"signal_count":0,"evidence_tier":"credible"},{"id":116,"name":"Hollinger International","entity_type":"organization","lat":41.8823,"lon":-87.6254,"description":"Media holding company controlled by Conrad Black that owned the Daily Telegraph, Chicago Sun-Times, and the Jerusalem Post. Its board of directors included Henry Kissinger and Les Wexner. The International Advisory Board was chaired by Margaret Thatcher and included Richard Perle and William F. B...","centrality":0.0041,"connection_count":2,"signal_count":0,"evidence_tier":"credible"},{"id":58,"name":"Bear Stearns","entity_type":"organization","lat":40.7551,"lon":-73.9744,"description":"Epstein's former employer. Served as broker to BCCI \u2014 hidden until 2011 UK Sandstorm Report.","centrality":0.0041,"connection_count":2,"signal_count":0,"evidence_tier":"credible"},{"id":154,"name":"Dalton School","entity_type":"organization","lat":40.7822,"lon":-73.954,"description":"The Dalton School. Elite private school on Manhattan's Upper East Side. Founded in 1919. Significant in the Epstein network because headmaster Donald Barr \u2014 an OSS veteran and father of future Attorney General William Barr \u2014 hired 20-year-old Jeffrey Epstein to teach calculus and physics there in...","centrality":0.0041,"connection_count":2,"signal_count":0,"evidence_tier":"credible"},{"id":275,"name":"Operation Roaring Lion","entity_type":"event","lat":38.9072,"lon":-77.0369,"description":"Israeli codename for the parallel military operation against Iran conducted in coordination with US Operation Epic Fury on February 28, 2026. Israeli Air Force contributed strike aircraft targeting military facilities in Tehran, Isfahan, and other locations.","centrality":0.0041,"connection_count":2,"signal_count":0,"evidence_tier":"credible"},{"id":55,"name":"First American Bank","entity_type":"organization","lat":38.9035,"lon":-77.0429,"description":"Largest DC bank holding company. Secretly owned by BCCI via CIA asset front-men. Fed never told despite CIA knowledge.","centrality":0.0041,"connection_count":2,"signal_count":0,"evidence_tier":"credible"},{"id":174,"name":"Kingdom Holding","entity_type":"organization","lat":-6.1751,"lon":106.865,"description":"Kingdom Holding Company (KHC). Saudi investment conglomerate founded by Prince Al-Waleed bin Talal in 1980. Listed on the Saudi stock exchange (Tadawul). A primary vehicle for Saudi royal investment into Western economies.\n\nMAJOR HOLDINGS: Citigroup (Al-Waleed was largest individual shareholder, ...","centrality":0.0041,"connection_count":2,"signal_count":0,"evidence_tier":"credible"},{"id":287,"name":"Atomic Energy Organization of Iran","entity_type":"agency","lat":46.226,"lon":6.1866,"description":"Iran's civilian nuclear energy agency (AEOI), headquartered in Tehran. Oversees Iran's nuclear program including enrichment facilities at Natanz and Fordow. AEOI headquarters in Tehran was struck during Operation Epic Fury on February 28, 2026.","centrality":0.0041,"connection_count":2,"signal_count":0,"evidence_tier":"inference"},{"id":295,"name":"Ryan Graves","entity_type":"person","lat":35.7219,"lon":51.3897,"description":"Former U.S. Navy F/A-18F pilot. Executive Director of Americans for Safe Aerospace. Testified before House Oversight Committee on July 26, 2023 about repeated UAP encounters during training exercises off the U.S. East Coast (2014-2015). Advocated for pilot reporting mechanisms and flight safety p...","centrality":0.0041,"connection_count":2,"signal_count":0,"evidence_tier":"documented"},{"id":298,"name":"Tim Burchett","entity_type":"person","lat":27.9506,"lon":-82.4572,"description":"U.S. Representative (R-TN). Lead sponsor of H.R. 5060, the Enhanced UAP Whistleblower Protection Act of 2025. Vocal advocate for UAP transparency in the House. Played key role in organizing the July 2023 House Oversight hearing on UAP.","centrality":0.0041,"connection_count":2,"signal_count":0,"evidence_tier":"documented"},{"id":305,"name":"UAP Task Force","entity_type":"program","lat":34.882,"lon":51.259,"description":"Pentagon program established August 2020 under the Office of Naval Intelligence to investigate UAP reports from military personnel. Succeeded AATIP. Produced the June 2021 preliminary assessment confirming 144 UAP reports from 2004-2021 (143 unexplained). David Grusch served as NRO representative...","centrality":0.0041,"connection_count":2,"signal_count":0,"evidence_tier":"documented"},{"id":310,"name":"B\u00f8rge Brende","entity_type":"person","lat":33.8938,"lon":35.5018,"description":"Norwegian politician and business executive. Former Foreign Minister of Norway (2013-2017). Became President and CEO of the World Economic Forum in 2017. On February 26, 2026, Brende resigned after Epstein files revealed he had three business dinners with Jeffrey Epstein and communicated via emai...","centrality":0.0041,"connection_count":2,"signal_count":0,"evidence_tier":"credible"},{"id":311,"name":"Klaus Schwab","entity_type":"person","lat":15.3694,"lon":44.191,"description":"German engineer, economist, and founder of the World Economic Forum (1971). Executive Chairman of WEF from founding until transitioning leadership to Brende. Architect of the 'Great Reset' initiative and 'Fourth Industrial Revolution' framework. Under Schwab's leadership, Davos became the premier...","centrality":0.0041,"connection_count":2,"signal_count":0,"evidence_tier":"credible"},{"id":72,"name":"George Town Club","entity_type":"facility","lat":38.9076,"lon":-77.0603,"description":"Washington DC private club. Korean intelligence front per WaPo. Robert Keith Gray was president. Blackmail venue.","centrality":0.002,"connection_count":1,"signal_count":0,"evidence_tier":"documented"},{"id":69,"name":"Apollo Global Management","entity_type":"organization","lat":40.7627,"lon":-73.9736,"description":"Private equity firm co-founded by Leon Black. Paid Epstein $158M in advisory fees.","centrality":0.002,"connection_count":1,"signal_count":0,"evidence_tier":"credible"},{"id":61,"name":"Hill & Knowlton","entity_type":"organization","lat":40.7527,"lon":-73.9818,"description":"PR firm led by Robert Keith Gray. Used as cover for CIA influence operations.","centrality":0.002,"connection_count":1,"signal_count":0,"evidence_tier":"credible"},{"id":71,"name":"Glencore","entity_type":"organization","lat":47.1934,"lon":8.5166,"description":"Commodities giant founded by Marc Rich. Partially owned by Nathaniel Rothschild.","centrality":0.002,"connection_count":1,"signal_count":0,"evidence_tier":"credible"},{"id":277,"name":"Strait of Hormuz Blockade","entity_type":"event","lat":38.0293,"lon":-78.4767,"description":"IRGC Navy declared closure of the Strait of Hormuz to all shipping on February 28, 2026, following the start of Operation Epic Fury. Mine-laying operations and fast attack craft deployed across shipping lanes. Approximately 21% of global oil transit was affected. The blockade triggered immediate ...","centrality":0.002,"connection_count":1,"signal_count":0,"evidence_tier":"credible"},{"id":278,"name":"B-2 Spirit Strike Package","entity_type":"event","lat":38.9007,"lon":-77.0302,"description":"Four B-2 Spirit stealth bombers from the 509th Bomb Wing launched from Whiteman Air Force Base, Missouri on a round-trip mission to Iran (~30 hours with aerial refueling). Delivered GBU-57 Massive Ordnance Penetrators (30,000 lb bunker busters) against hardened underground missile production and ...","centrality":0.002,"connection_count":1,"signal_count":0,"evidence_tier":"credible"},{"id":31,"name":"Hillary Clinton","entity_type":"person","lat":38.9007,"lon":-77.0369,"description":"Rose Law Firm partner. Firm represented both Systematics and assisted BCCI's US entry.","centrality":0.002,"connection_count":1,"signal_count":0,"evidence_tier":"inference"},{"id":290,"name":"John Mack","entity_type":"person","lat":35.6892,"lon":51.389,"description":"Pulitzer Prize-winning Harvard Medical School professor of psychiatry. Conducted clinical research on alien abduction experiences. Faced unprecedented Harvard investigation (1994-1995) for his book 'Abduction: Human Encounters with Aliens.' Successfully defended by Daniel Sheehan \u2014 Harvard reaffi...","centrality":0.002,"connection_count":1,"signal_count":0,"evidence_tier":"credible"},{"id":291,"name":"Steven Greer","entity_type":"person","lat":35.6892,"lon":51.389,"description":"Emergency physician and founder of the Disclosure Project. Organized the May 9, 2001 National Press Club event with 20+ military/intelligence witnesses testifying about UFO encounters. Sheehan served as general counsel. The webcast drew 250,000 simultaneous viewers. Advocates for release of suppr...","centrality":0.002,"connection_count":1,"signal_count":0,"evidence_tier":"credible"},{"id":294,"name":"David Fravor","entity_type":"person","lat":35.52,"lon":51.77,"description":"Retired U.S. Navy Commander, former commanding officer of Black Aces Squadron (VFA-41). Eyewitness to the 2004 USS Nimitz UAP encounter ('Tic Tac' incident). Testified before House Oversight Committee on July 26, 2023 alongside David Grusch and Ryan Graves.","centrality":0.002,"connection_count":1,"signal_count":0,"evidence_tier":"documented"},{"id":296,"name":"Chuck Schumer","entity_type":"person","lat":35.705,"lon":51.418,"description":"U.S. Senate Majority Leader (D-NY). Lead author of the UAP Disclosure Act (S.Amdt.797), modeled on the JFK Assassination Records Collection Act of 1992. Original version included eminent domain over recovered technologies of unknown origin held by private entities. Passed as part of FY2024 NDAA b...","centrality":0.002,"connection_count":1,"signal_count":0,"evidence_tier":"documented"},{"id":297,"name":"Mike Rounds","entity_type":"person","lat":35.6892,"lon":51.389,"description":"U.S. Senator (R-SD). Co-author of the bipartisan UAP Disclosure Act with Chuck Schumer. The Schumer-Rounds Amendment received bipartisan support from Rubio, Gillibrand, Young, and Heinrich.","centrality":0.002,"connection_count":1,"signal_count":0,"evidence_tier":"credible"},{"id":307,"name":"Enhanced UAP Whistleblower Protection Act","entity_type":"legislation","lat":25.35,"lon":60.38,"description":"H.R. 5060, introduced by Rep. Tim Burchett (R-TN) and Rep. Anna Paulina Luna (R-FL). Allows current/former government employees and contractors to report UAP/NHI information to Congress. Establishes private civil cause of action for retaliation. Grants Attorney General immunity-granting authority...","centrality":0.002,"connection_count":1,"signal_count":0,"evidence_tier":"documented"},{"id":312,"name":"Alois Zwinggi","entity_type":"person","lat":35.73,"lon":51.34,"description":"Swiss executive, longtime World Economic Forum Managing Director. Appointed interim President and CEO of WEF on February 26, 2026, following the resignation of B\u00f8rge Brende over Epstein file revelations. WEF board of trustees to oversee the search for a permanent replacement.","centrality":0.002,"connection_count":1,"signal_count":0,"evidence_tier":"documented"},{"id":313,"name":"Davos Annual Meeting","entity_type":"event","lat":35.6997,"lon":51.423,"description":"Annual gathering hosted by the World Economic Forum in Davos-Klosters, Switzerland, typically in January. Convenes ~3,000 participants including heads of state, CEOs, central bankers, and media figures. The invitation-only event functions as the premier global coordination mechanism for political...","centrality":0.002,"connection_count":1,"signal_count":0,"evidence_tier":"documented"}]