[{"id":1,"name":"Jeffrey Epstein","entity_type":"person","lat":40.7719,"lon":-73.9639,"description":"Jeffrey Edward Epstein (1953-2019). Financier, convicted sex offender, and intelligence asset whose network connected Wall Street, government, and intelligence services across multiple countries.\n\nEARLY CAREER: Hired in 1974 to teach calculus and physics at the Dalton School in Manhattan by headm...","centrality":0.1424,"connection_count":83,"signal_count":0,"evidence_tier":"inference"},{"id":85,"name":"CIA","entity_type":"agency","lat":38.9517,"lon":-77.1467,"description":"Central Intelligence Agency. Created by National Security Act 1947. MKULTRA, BCCI banking, Iran-Contra, sexual blackmail operations documented.","centrality":0.1252,"connection_count":73,"signal_count":0,"evidence_tier":"documented"},{"id":33,"name":"Donald Trump","entity_type":"person","lat":26.6777,"lon":-80.0367,"description":"Donald John Trump (b. 1946). 45th and 47th President of the United States. Real estate developer and media figure whose career intersects organized crime, intelligence operations, and the Epstein network through decades of documented connections.\n\nROY COHN MENTORSHIP (1973-1986): Retained attorne...","centrality":0.0617,"connection_count":36,"signal_count":0,"evidence_tier":"inference"},{"id":86,"name":"NSA","entity_type":"agency","lat":39.1086,"lon":-76.7714,"description":"National Security Agency. PROMIS/Systematics connection. Watch list included Church Committee members.","centrality":0.0446,"connection_count":26,"signal_count":0,"evidence_tier":"documented"},{"id":2,"name":"Ghislaine Maxwell","entity_type":"person","lat":40.7677,"lon":-73.965,"description":"Ghislaine Noelle Marion Maxwell (b. 1961). Convicted sex trafficker, socialite, and intelligence network connector. Daughter of Robert Maxwell, documented Mossad asset.\n\nFAMILY BACKGROUND: Father Robert Maxwell (born Jan Ludvik Hoch) was a British media mogul and documented Israeli intelligence a...","centrality":0.0446,"connection_count":26,"signal_count":0,"evidence_tier":"inference"},{"id":88,"name":"Mossad","entity_type":"agency","lat":32.049,"lon":34.7625,"description":"Israeli intelligence service. Robert Maxwell asset. Epstein identified as co-opted agent. PROMIS distribution.","centrality":0.0429,"connection_count":25,"signal_count":0,"evidence_tier":"credible"},{"id":260,"name":"Bohemian Club","entity_type":"organization","lat":38.5038,"lon":-122.9742,"description":"Invite-only, men-only social club in San Francisco, founded 1872. Hosts annual summer encampments at Bohemian Grove \u2014 2,700-acre campground in Monte Rio, CA. Members include presidents, CEOs, bankers, Supreme Court justices, CIA directors. Leaked 2023 membership/attendance lists obtained by Danie...","centrality":0.0429,"connection_count":25,"signal_count":0,"evidence_tier":"credible"},{"id":87,"name":"FBI","entity_type":"agency","lat":38.8977,"lon":-77.0248,"description":"Federal Bureau of Investigation. COINTELPRO. Hoover compromised by Lansky. CHS memo on Epstein.","centrality":0.0395,"connection_count":23,"signal_count":0,"evidence_tier":"documented"},{"id":32,"name":"Bill Clinton","entity_type":"person","lat":34.7465,"lon":-92.2896,"description":"Arkansas Governor, later President. Sent AR National Guard to Honduras. Pardoned Marc Rich. Epstein flight logs document 26+ flights on Epstein's aircraft.","centrality":0.0395,"connection_count":23,"signal_count":0,"evidence_tier":"inference"},{"id":54,"name":"BCCI","entity_type":"organization","lat":51.5127,"lon":-0.0891,"description":"Bank of Credit and Commerce International. CIA's criminal banking arm. Secretly owned First American Bank. Shut down 1991.","centrality":0.0292,"connection_count":17,"signal_count":0,"evidence_tier":"credible"},{"id":3,"name":"Robert Maxwell","entity_type":"person","lat":51.5256,"lon":-0.0776,"description":"Media mogul, Mossad asset. Sold PROMIS software backdoored by Israeli intelligence to governments worldwide. Died 1991.","centrality":0.0292,"connection_count":17,"signal_count":0,"evidence_tier":"inference"},{"id":57,"name":"Deutsche Bank","entity_type":"organization","lat":50.11,"lon":8.6703,"description":"Maintained Epstein accounts via Butterfly Trust structure. Settled $75M with NYDFS in 2020. Provided $340M+ in loans to Trump after all other US banks refused. Fined for Russian mirror trading/money laundering scheme.","centrality":0.0274,"connection_count":16,"signal_count":0,"evidence_tier":"credible"},{"id":111,"name":"Henry Kissinger","entity_type":"person","lat":40.7587,"lon":-73.9706,"description":"Heinz Alfred 'Henry' Kissinger (1923-2023). German-born American diplomat who served as National Security Advisor (1969-1975) and Secretary of State (1973-1977) under Presidents Nixon and Ford \u2014 the only person to hold both positions simultaneously. Nobel Peace Prize laureate (1973) for Vietnam n...","centrality":0.0274,"connection_count":16,"signal_count":0,"evidence_tier":"inference"},{"id":96,"name":"Iran-Contra","entity_type":"program","lat":38.8977,"lon":-77.0365,"description":"Covert arms-for-hostages and drug trafficking operation. Casey architect. BCCI banking. Mena Airport. SAT flights.","centrality":0.0257,"connection_count":15,"signal_count":0,"evidence_tier":"credible"},{"id":4,"name":"Les Wexner","entity_type":"person","lat":40.0848,"lon":-82.8968,"description":"Leslie Herbert Wexner (b. 1937). Founder of L Brands (The Limited, Victoria's Secret, Bath & Body Works, Abercrombie & Fitch). Richest man in Ohio. Mega Group co-founder. Central figure in the Epstein network through an unprecedented financial relationship.\n\nEPSTEIN RELATIONSHIP: Granted Jeffrey ...","centrality":0.024,"connection_count":14,"signal_count":0,"evidence_tier":"inference"},{"id":108,"name":"Prince Andrew","entity_type":"person","lat":51.4194,"lon":-0.6052,"description":"Andrew Albert Christian Edward Mountbatten-Windsor (born 1960), formerly styled Prince Andrew, Duke of York. Third child and second son of Queen Elizabeth II. Served in the Royal Navy 1979-2001, including as a helicopter pilot during the Falklands War.\n\nEPSTEIN CONNECTION: Andrew stated he met Ep...","centrality":0.024,"connection_count":14,"signal_count":0,"evidence_tier":"inference"},{"id":89,"name":"DOJ","entity_type":"agency","lat":38.8934,"lon":-77.0249,"description":"Department of Justice. Stole PROMIS from INSLAW. Epstein NPA. BCCI non-notification from CIA.","centrality":0.0223,"connection_count":13,"signal_count":0,"evidence_tier":"documented"},{"id":274,"name":"Operation Epic Fury","entity_type":"event","lat":35.6892,"lon":51.389,"description":"US codename for the combined military operation against Iran launched on February 28, 2026. The largest regional concentration of American military firepower in a generation. Strikes targeted Iran's military command structure, IRGC facilities, air defenses, missile sites, and naval bases. B-2 ste...","centrality":0.0223,"connection_count":13,"signal_count":0,"evidence_tier":"credible"},{"id":170,"name":"Saudi GID","entity_type":"agency","lat":24.6949,"lon":46.7241,"description":"Al Mukhabarat Al A'amah \u2014 the General Intelligence Directorate (GID) of Saudi Arabia. Also known as the General Intelligence Presidency (GIP). Saudi Arabia's primary foreign intelligence agency, analogous to the CIA.\n\nSAFARI CLUB (1976-1980s): The GID was a founding member of the Safari Club, an ...","centrality":0.0206,"connection_count":12,"signal_count":0,"evidence_tier":"credible"},{"id":145,"name":"Virginia Giuffre","entity_type":"person","lat":26.7056,"lon":-80.0364,"description":"Virginia Louise Giuffre, nee Roberts (1983-2025). The most prominent survivor and witness in the Jeffrey Epstein sex trafficking case. Her public testimony, civil lawsuits, and advocacy fundamentally shaped public knowledge of the Epstein operation.\n\nBACKGROUND: Born August 9, 1983, in Sacramento...","centrality":0.0206,"connection_count":12,"signal_count":0,"evidence_tier":"inference"},{"id":135,"name":"Jean-Luc Brunel","entity_type":"person","lat":48.8566,"lon":2.3522,"description":"Jean-Luc Brunel (1946-2022). French model scout, agency founder, and accused sex trafficker. Epstein's primary modeling industry pipeline who funneled young women into the trafficking network through the legitimate facade of fashion recruitment.\n\nMODELING CAREER: Born in Neuilly-sur-Seine, France...","centrality":0.0206,"connection_count":12,"signal_count":0,"evidence_tier":"inference"},{"id":91,"name":"PROMIS","entity_type":"program","lat":38.8934,"lon":-77.0249,"description":"Prosecutor's Management Information System. Stolen from INSLAW by DOJ. Backdoored by Israeli intelligence. Sold worldwide via Robert Maxwell.","centrality":0.0189,"connection_count":11,"signal_count":0,"evidence_tier":"credible"},{"id":168,"name":"Prince Bandar bin Sultan","entity_type":"person","lat":38.9072,"lon":-77.0558,"description":"Prince Bandar bin Sultan Al Saud (born 1949). Saudi Ambassador to the United States (1983-2005), the longest-serving Saudi ambassador to Washington. Known as 'Bandar Bush' for his extraordinarily close personal relationship with the Bush family \u2014 particularly George H.W. Bush and George W. Bush. ...","centrality":0.0189,"connection_count":11,"signal_count":0,"evidence_tier":"inference"},{"id":489,"name":"Federal Reserve System","entity_type":"organization","lat":38.8928,"lon":-77.0454,"description":"U.S. central bank created by Federal Reserve Act (1913). Planned at secret Jekyll Island meeting (1910) attended by representatives of Morgan, Rockefeller, Warburg, and Kuhn Loeb interests. Twelve regional banks with private ownership structure. Controls monetary policy, interest rates, money sup...","centrality":0.0172,"connection_count":10,"signal_count":0,"evidence_tier":"credible"},{"id":383,"name":"JFK Assassination","entity_type":"event","lat":32.7787,"lon":-96.8083,"description":"Assassination of President John F. Kennedy on November 22, 1963 in Dealey Plaza, Dallas. Warren Commission concluded lone gunman (Oswald). HSCA concluded probable conspiracy in 1979. Millions of records still partially classified. The event that made the term 'deep state' necessary.","centrality":0.0172,"connection_count":10,"signal_count":0,"evidence_tier":"documented"},{"id":410,"name":"September 11 Attacks","entity_type":"event","lat":40.7116,"lon":-74.0133,"description":"Coordinated terrorist attacks on Sept 11, 2001. Four hijacked aircraft. WTC Towers destroyed, Pentagon damaged, Flight 93 crashed in Pennsylvania. 2,977 killed. Led to PATRIOT Act, AUMF, wars in Afghanistan and Iraq. Saudi connections suppressed for 15 years (28 Pages).","centrality":0.0172,"connection_count":10,"signal_count":0,"evidence_tier":"documented"},{"id":18,"name":"Meyer Lansky","entity_type":"person","lat":25.7907,"lon":-80.13,"description":"Meyer Suchowljansky (1902-1983). 'The Mob's Accountant.' Architect of the National Crime Syndicate and the most important bridge node between organized crime and the intelligence apparatus.\n\nNATIONAL CRIME SYNDICATE: With Lucky Luciano, Lansky created the organizational model for American organiz...","centrality":0.0172,"connection_count":10,"signal_count":0,"evidence_tier":"inference"},{"id":321,"name":"Edward Snowden","entity_type":"person","lat":55.7558,"lon":37.6173,"description":"Former NSA contractor (Booz Allen Hamilton) who in June 2013 disclosed thousands of classified documents revealing the NSA's global mass surveillance programs, including PRISM (direct access to tech company servers), XKeyscore (real-time internet monitoring), and Boundless Informant (metadata col...","centrality":0.0172,"connection_count":10,"signal_count":0,"evidence_tier":"inference"},{"id":219,"name":"22 Avenue Foch","entity_type":"facility","lat":48.8717,"lon":2.2888,"description":"Jeffrey Epstein's Paris apartment, located on one of the most expensive streets in the world in the 16th arrondissement. Purchased by Epstein in 2001 through a French company named SCI JEP.\n\nThe property comprised approximately 685 square meters (7,373 sq ft): three units on the second floor with...","centrality":0.0154,"connection_count":9,"signal_count":0,"evidence_tier":"documented"},{"id":176,"name":"Carlyle Group","entity_type":"organization","lat":38.9044,"lon":-77.0398,"description":"The Carlyle Group. Washington, D.C.-based global private equity firm founded in 1987 by David Rubenstein, William Conway Jr., and Daniel D'Aniello. One of the world's largest alternative asset managers, with over $300 billion in assets under management.\n\nSAUDI-BUSH NEXUS: The Carlyle Group became...","centrality":0.0154,"connection_count":9,"signal_count":0,"evidence_tier":"credible"},{"id":66,"name":"Mega Group","entity_type":"organization","lat":40.758,"lon":-73.9717,"description":"Secretive group of billionaire pro-Israel donors. Co-founded by Wexner and Charles Bronfman. Epstein attended meetings.","centrality":0.0154,"connection_count":9,"signal_count":0,"evidence_tier":"credible"},{"id":474,"name":"AAWSAP","entity_type":"program","lat":38.8711,"lon":-77.0562,"description":"Advanced Aerospace Weapon System Applications Program. DIA program (2008-2012) managed by James Lacatski, contracted to Bigelow's BAASS. Broader than AATIP \u2014 investigated UAP, Skinwalker Ranch phenomena, produced 38 DIRDs on exotic technologies. $22M budget from Sen. Harry Reid's initiative.","centrality":0.0154,"connection_count":9,"signal_count":0,"evidence_tier":"credible"},{"id":549,"name":"2008 Financial Crisis","entity_type":"event","lat":40.7068,"lon":-74.009,"description":"Global financial crisis triggered by the collapse of the US subprime mortgage market. Lehman Brothers filed for bankruptcy (Sept 15, 2008) \u2014 the largest in US history ($639B in assets). AIG required $182B in government bailout. \n\nTARP BAILOUT: Emergency Economic Stabilization Act (Oct 2008) autho...","centrality":0.0154,"connection_count":9,"signal_count":0,"evidence_tier":"credible"},{"id":76,"name":"Little Saint James","entity_type":"facility","lat":18.2999,"lon":-64.8257,"description":"Little Saint James. Private island in the US Virgin Islands owned by Jeffrey Epstein from 1998 until his death. Also known as 'Pedophile Island' or 'Epstein Island.' Site of a mysterious temple-like structure, staff quarters, and underground facilities documented in aerial photographs and drone f...","centrality":0.0137,"connection_count":8,"signal_count":0,"evidence_tier":"documented"},{"id":207,"name":"MSS","entity_type":"agency","lat":39.9053,"lon":116.3977,"description":"Ministry of State Security (Guojia Anquan Bu, MSS). The People's Republic of China's intelligence, security, and secret police agency. Established in 1983 by merging the Central Investigation Department with counterintelligence elements of the Ministry of Public Security.\n\nFUNCTION: A DOJ documen...","centrality":0.0137,"connection_count":8,"signal_count":0,"evidence_tier":"credible"},{"id":162,"name":"LAKAM","entity_type":"agency","lat":32.0684,"lon":34.7916,"description":"LAKAM (Lishka le-Kishrei Mada \u2014 Bureau of Scientific Relations), also known as Lekem. Israeli scientific intelligence collection agency operating from 1957 to 1986 under the Israeli Ministry of Defense.\n\nMISSION: Collected scientific and technical intelligence for Israel's defense establishment, ...","centrality":0.0137,"connection_count":8,"signal_count":0,"evidence_tier":"credible"},{"id":56,"name":"JPMorgan Chase","entity_type":"organization","lat":40.758,"lon":-73.9713,"description":"Processed 4,725 suspicious Epstein-related wires totaling $1.1B. Settled $290M in 2023.","centrality":0.0137,"connection_count":8,"signal_count":0,"evidence_tier":"credible"},{"id":77,"name":"The Commission","entity_type":"organization","lat":40.7128,"lon":-74.006,"description":"The Commission. Governing body of the American Mafia, established by Lucky Luciano in 1931 to prevent inter-family warfare. Comprised bosses of the Five Families (Gambino, Genovese, Lucchese, Bonanno, Colombo) plus the Chicago Outfit and Buffalo family. The Commission approved major operations, s...","centrality":0.0137,"connection_count":8,"signal_count":0,"evidence_tier":"credible"},{"id":436,"name":"Council on Foreign Relations","entity_type":"organization","lat":40.7688,"lon":-73.9675,"description":"Founded 1921 from the 'Inquiry' group that advised Woodrow Wilson at Versailles. Most influential foreign policy think tank in the US. Members have included virtually every Secretary of State, CIA Director, and major media figure for a century. War and Peace Studies project (1939-45) designed the...","centrality":0.0137,"connection_count":8,"signal_count":0,"evidence_tier":"credible"},{"id":94,"name":"MKULTRA","entity_type":"program","lat":38.9517,"lon":-77.1467,"description":"CIA mind control program. Operation Midnight Climax used sexual blackmail. DCI Helms ordered files destroyed 1973.","centrality":0.0137,"connection_count":8,"signal_count":0,"evidence_tier":"credible"},{"id":333,"name":"Operation Mockingbird","entity_type":"program","lat":38.9517,"lon":-77.1467,"description":"CIA program to infiltrate and influence American and international media, beginning in the early 1950s under Frank Wisner's Office of Policy Coordination. By the mid-1950s, the CIA had recruited journalists, editors, publishers, and media executives at major outlets including The Washington Post,...","centrality":0.0137,"connection_count":8,"signal_count":0,"evidence_tier":"credible"},{"id":100,"name":"Epstein NPA (2007)","entity_type":"event","lat":26.7153,"lon":-80.0534,"description":"Non-Prosecution Agreement. Acosta reportedly told Epstein 'belonged to intelligence.' Victims not notified.","centrality":0.0137,"connection_count":8,"signal_count":0,"evidence_tier":"credible"},{"id":220,"name":"French Epstein Investigation","entity_type":"event","lat":48.8566,"lon":2.3522,"description":"French criminal investigation into the Epstein trafficking network, opened by the Paris prosecutor on August 23, 2019, after attorney Yael Mellul wrote to prosecutors reporting an alleged international pedophile network involving Epstein. Charges investigated: rape and sexual assault of minors, c...","centrality":0.0137,"connection_count":8,"signal_count":0,"evidence_tier":"credible"},{"id":338,"name":"Church Committee","entity_type":"event","lat":38.8899,"lon":-77.0091,"description":"U.S. Senate Select Committee to Study Governmental Operations with Respect to Intelligence Activities (1975-1976), chaired by Senator Frank Church (D-Idaho). Investigated abuses by the CIA, NSA, FBI, and IRS. Published 14 reports exposing Operation Mockingbird (CIA media infiltration), COINTELPRO...","centrality":0.0137,"connection_count":8,"signal_count":0,"evidence_tier":"credible"},{"id":5,"name":"Ehud Barak","entity_type":"person","lat":32.0853,"lon":34.7818,"description":"Former Israeli PM and IDF Chief of Staff. Visited Epstein's residences. Wexner Foundation paid $2M for vague 'research.' Carbyne co-founder.","centrality":0.0137,"connection_count":8,"signal_count":0,"evidence_tier":"inference"},{"id":53,"name":"Rafi Eitan","entity_type":"person","lat":32.0684,"lon":34.7916,"description":"Rafael 'Rafi' Eitan (1926-2019). Legendary Israeli intelligence operative. Led the team that captured Adolf Eichmann in Buenos Aires (1960). Ran Jonathan Pollard as a spy inside the US Navy (1984-85). Worked directly with Meyer Lansky on arms smuggling for the Haganah (pre-IDF) using waterfront a...","centrality":0.0137,"connection_count":8,"signal_count":0,"evidence_tier":"inference"},{"id":361,"name":"Allen Dulles","entity_type":"person","lat":38.9517,"lon":-77.1467,"description":"CIA Director 1953\u20131961. Fired by Kennedy after Bay of Pigs. Appointed to Warren Commission by LBJ \u2014 investigated the agency he formerly ran. Key architect of CIA covert operations including MKUltra authorization and Guatemala coup.","centrality":0.0137,"connection_count":8,"signal_count":0,"evidence_tier":"inference"},{"id":243,"name":"George W. Bush","entity_type":"person","lat":32.7767,"lon":-96.797,"description":"43rd President (2001-09). Bohemian Club member. Drove Iraq invasion alongside fellow Club members Cheney, Rumsfeld, and Powell \u2014 Bechtel Corporation (led by fellow members) received hundreds of millions in reconstruction contracts.","centrality":0.0137,"connection_count":8,"signal_count":0,"evidence_tier":"inference"},{"id":365,"name":"Lee Harvey Oswald","entity_type":"person","lat":32.7787,"lon":-96.8083,"description":"Alleged lone assassin of JFK. Former Marine with security clearance who 'defected' to USSR then returned without consequence. Connected to CIA-monitored anti-Castro operations in New Orleans (544 Camp Street). CIA's Mexico City station tracked his movements. HSCA found 'probable conspiracy' beyon...","centrality":0.0137,"connection_count":8,"signal_count":0,"evidence_tier":"inference"},{"id":289,"name":"Daniel Sheehan","entity_type":"person","lat":38.0293,"lon":-78.4767,"description":"Harvard-trained constitutional attorney. Represented NYT in Pentagon Papers (1971), led Karen Silkwood case, filed Avirgan v. Hull RICO suit exposing Iran-Contra 'Secret Team' via Christic Institute. Defended Dr. John Mack at Harvard. General Counsel for 2001 Disclosure Project. Legal counsel for...","centrality":0.0137,"connection_count":8,"signal_count":0,"evidence_tier":"inference"},{"id":90,"name":"DARPA","entity_type":"agency","lat":38.8806,"lon":-77.1085,"description":"Defense Advanced Research Projects Agency. Ran Total Information Awareness program. LifeLog program.","centrality":0.012,"connection_count":7,"signal_count":0,"evidence_tier":"documented"},{"id":183,"name":"MI6","entity_type":"agency","lat":51.4871,"lon":-0.1245,"description":"Secret Intelligence Service (SIS/MI6). The United Kingdom's foreign intelligence agency. Established 1909. Responsible for collecting foreign intelligence in support of UK national security and economic well-being.\n\nMAXWELL CONNECTION: Multiple investigative accounts (Gordon Thomas, Seymour Hersh...","centrality":0.012,"connection_count":7,"signal_count":0,"evidence_tier":"documented"},{"id":163,"name":"Unit 8200","entity_type":"agency","lat":31.253,"lon":34.7915,"description":"Unit 8200 (Yehida Shmoneh-Matayim). Israeli Intelligence Corps signals intelligence (SIGINT) unit, equivalent to the U.S. NSA or UK GCHQ. Based at Urim SIGINT Base in the Negev Desert and facilities near Herzliya.\n\nMISSION: Responsible for collecting signals intelligence, conducting cyber operati...","centrality":0.012,"connection_count":7,"signal_count":0,"evidence_tier":"credible"},{"id":265,"name":"Islamic Revolutionary Guard Corps","entity_type":"agency","lat":35.6892,"lon":51.389,"description":"Iran's primary paramilitary force, established 1979 after the Islamic Revolution. Reports directly to the Supreme Leader. Controls Iran's ballistic missile program (IRGC Aerospace Force), naval forces in the Persian Gulf (IRGC Navy), ground forces, and the Quds Force for external operations. Desi...","centrality":0.012,"connection_count":7,"signal_count":0,"evidence_tier":"credible"},{"id":141,"name":"MC2 Model Management","entity_type":"organization","lat":25.775,"lon":-80.1868,"description":"MC2 Model Management. Modeling agency founded in 2005 by Jean-Luc Brunel with up to $1 million in funding from Jeffrey Epstein. The name was an inside reference to Einstein's E=MC2 equation, with 'E' standing for Epstein. Operated offices in New York City and Miami. Served as a legitimate commerc...","centrality":0.012,"connection_count":7,"signal_count":0,"evidence_tier":"credible"},{"id":81,"name":"Philadelphia Crime Family","entity_type":"organization","lat":39.9526,"lon":-75.1652,"description":"Also known as the Bruno-Scarfo family. Controlled organized crime in the greater Philadelphia area and South Jersey. Successive bosses: Angelo Bruno (1959-1980), Phil Testa (1980-1981), Nicky Scarfo (1981-1991), John Stanfa (1991-1994), Ralph Natale (1994-1999), Joey Merlino (1999-present). The b...","centrality":0.012,"connection_count":7,"signal_count":0,"evidence_tier":"credible"},{"id":309,"name":"World Economic Forum","entity_type":"organization","lat":46.226,"lon":6.1866,"description":"International non-governmental organization founded in 1971 by Klaus Schwab, headquartered in Cologny, Geneva, Switzerland. Hosts the annual Davos meeting \u2014 the world's premier gathering of political leaders, CEOs, central bankers, and billionaires. Known for shaping global policy through public-...","centrality":0.012,"connection_count":7,"signal_count":0,"evidence_tier":"credible"},{"id":11,"name":"Roy Cohn","entity_type":"person","lat":40.7625,"lon":-73.971,"description":"Roy Marcus Cohn (1927-1986). Attorney, political fixer, and sexual blackmail operator who served as a nexus between organized crime, intelligence agencies, and political power for three decades.\n\nMCCARTHY ERA: Chief counsel to Senator Joseph McCarthy's investigations. Prosecuted Julius and Ethel ...","centrality":0.012,"connection_count":7,"signal_count":0,"evidence_tier":"inference"},{"id":161,"name":"Jonathan Pollard","entity_type":"person","lat":38.8719,"lon":-77.0163,"description":"Jonathan Jay Pollard (born 1954, Galveston, Texas). Former U.S. Navy civilian intelligence analyst convicted of spying for Israel in 1987. Served 30 years in federal prison \u2014 the longest sentence ever imposed for spying for a U.S. ally.\n\nTHE OPERATION: Pollard was recruited by LAKAM (Bureau of Sc...","centrality":0.012,"connection_count":7,"signal_count":0,"evidence_tier":"inference"},{"id":241,"name":"Ronald Reagan","entity_type":"person","lat":38.8977,"lon":-77.0365,"description":"40th President of the United States (1981-89). Bohemian Club member \u2014 Social Security reform planned at the Grove per Reagan Library memo from Edwin Harper to Alan Greenspan. Implemented Heritage Foundation's first Mandate for Leadership. Capital gains tax cut persuaded at the Grove by investor B...","centrality":0.012,"connection_count":7,"signal_count":0,"evidence_tier":"inference"},{"id":119,"name":"Charles Bronfman","entity_type":"person","lat":40.7614,"lon":-73.9706,"description":"Charles Rosner Bronfman (b. 1931). Canadian-American billionaire businessman, philanthropist, and co-founder of the Mega Group with Les Wexner.\n\nSEAGRAM EMPIRE: Son of Samuel Bronfman, who built the Seagram spirits empire during and after American Prohibition. Samuel Bronfman's Distillers Corpora...","centrality":0.012,"connection_count":7,"signal_count":0,"evidence_tier":"inference"},{"id":134,"name":"Harvey Weinstein","entity_type":"person","lat":40.7195,"lon":-74.0089,"description":"Harvey Weinstein (b. 1952). Co-founder of Miramax Films and The Weinstein Company. Convicted sex offender whose decades-long pattern of sexual assault, coercion, and surveillance-based intimidation parallels the Epstein operation's blackmail methodology.\n\nCAREER: Co-founded Miramax Films with bro...","centrality":0.012,"connection_count":7,"signal_count":0,"evidence_tier":"inference"},{"id":539,"name":"Goldman Sachs","entity_type":"organization","lat":40.7143,"lon":-74.0144,"description":"Global investment bank, one of the most powerful financial institutions in the world. Founded 1869. Known as 'Government Sachs' for its extraordinary revolving door with the US Treasury and other government agencies. \n\nREVOLVING DOOR: Robert Rubin (Goldman co-chairman \u2192 Clinton Treasury Secretary...","centrality":0.012,"connection_count":7,"signal_count":0,"evidence_tier":"documented"},{"id":575,"name":"Graham Hancock","entity_type":"person","lat":51.752,"lon":-1.2577,"description":"British journalist and author. Best known for 'Fingerprints of the Gods' (1995) which proposed an advanced civilization existed before the Ice Age and was destroyed by cataclysm ~12,800 years ago. Updated thesis in 'Magicians of the Gods' (2015) incorporating Younger Dryas impact evidence. Netfli...","centrality":0.012,"connection_count":7,"signal_count":0,"evidence_tier":"inference"},{"id":182,"name":"MI5","entity_type":"agency","lat":51.4959,"lon":-0.1264,"description":"Security Service (MI5). The United Kingdom's domestic counter-intelligence and security agency. Established 1909. Responsible for protecting the UK against threats to national security including espionage, terrorism, and subversion.\n\nMAXWELL CONNECTION: MI5 held files on Robert Maxwell from at le...","centrality":0.0103,"connection_count":6,"signal_count":0,"evidence_tier":"documented"},{"id":348,"name":"FDA","entity_type":"agency","lat":39.0346,"lon":-76.9781,"description":"U.S. Food and Drug Administration, federal agency within HHS responsible for regulating food, drugs, biologics, medical devices, and tobacco. Approves all pharmaceuticals for the U.S. market. Since the Prescription Drug User Fee Act (PDUFA, 1992), the FDA's drug review division has been predomina...","centrality":0.0103,"connection_count":6,"signal_count":0,"evidence_tier":"credible"},{"id":59,"name":"Palantir Technologies","entity_type":"organization","lat":39.7539,"lon":-104.9994,"description":"Data analytics firm co-founded by Peter Thiel. Major CIA/NSA/military contractor. Successor to TIA capabilities.","centrality":0.0103,"connection_count":6,"signal_count":0,"evidence_tier":"credible"},{"id":164,"name":"NSO Group","entity_type":"organization","lat":32.1632,"lon":34.7916,"description":"NSO Group Technologies (founded 2010, Herzliya, Israel). Private intelligence firm that develops and sells surveillance technology to governments worldwide. Best known for Pegasus, a zero-click spyware capable of compromising any smartphone.\n\nFOUNDERS: Founded by Niv Carmi, Shalev Hulio, and Omri...","centrality":0.0103,"connection_count":6,"signal_count":0,"evidence_tier":"credible"},{"id":261,"name":"Heritage Foundation","entity_type":"organization","lat":38.9034,"lon":-77.0148,"description":"Conservative think tank co-founded in 1973 by Joseph Coors Sr and Edwin Fuelner. Produced 'Mandate for Leadership' policy books for Reagan (1981) and Trump (Project 2025, 2023). Immensely powerful during Reagan administration \u2014 policies still affecting Americans today. Funded by Koch network. Her...","centrality":0.0103,"connection_count":6,"signal_count":0,"evidence_tier":"credible"},{"id":178,"name":"Safari Club","entity_type":"organization","lat":30.0444,"lon":31.2357,"description":"The Safari Club (1976-early 1980s). An informal, secret alliance of intelligence agencies formed after the Church Committee hearings (1975) severely curtailed CIA covert operations. Named after the Safari Club resort in Kenya where early meetings were held.\n\nMEMBERS: French SDECE (led by Alexandr...","centrality":0.0103,"connection_count":6,"signal_count":0,"evidence_tier":"credible"},{"id":177,"name":"BAE Al-Yamamah Deal","entity_type":"event","lat":51.5074,"lon":-0.1278,"description":"BAE Systems Al-Yamamah Deal. The largest arms deal in British history, signed in 1985 between the UK and Saudi Arabia, with ongoing phases through 2005+. Total value estimated at over 43 billion GBP ($80+ billion).\n\nTHE DEAL: Saudi Arabia purchased Tornado and Typhoon fighter jets, other military...","centrality":0.0103,"connection_count":6,"signal_count":0,"evidence_tier":"credible"},{"id":8,"name":"William Barr","entity_type":"person","lat":38.8934,"lon":-77.0249,"description":"William Pelham Barr (b. 1950). US Attorney General under George H.W. Bush (1991-1993) and Donald Trump (2019-2020). Connected to multiple cover-ups spanning three decades.\n\nFAMILY CONNECTION TO EPSTEIN: Father Donald Barr was headmaster at the Dalton School when he hired 20-year-old Jeffrey Epste...","centrality":0.0103,"connection_count":6,"signal_count":0,"evidence_tier":"inference"},{"id":242,"name":"George H.W. Bush","entity_type":"person","lat":29.7604,"lon":-95.3698,"description":"41st President (1989-93), former CIA Director (1976-77). Bohemian Club member. Appointed William Barr as Attorney General (1991). Father of George W. Bush. Key node connecting intelligence community to the Grove's political elite.","centrality":0.0103,"connection_count":6,"signal_count":0,"evidence_tier":"inference"},{"id":124,"name":"Jes Staley","entity_type":"person","lat":40.758,"lon":-73.9713,"description":"James Edward 'Jes' Staley (b. 1956). Senior JPMorgan executive whose deep personal relationship with Jeffrey Epstein was documented in over 1,200 emails, including apparent coded references to young women using Disney princess names.\n\nJPMORGAN CAREER: Joined Morgan Guaranty Trust in 1979 after gr...","centrality":0.0103,"connection_count":6,"signal_count":0,"evidence_tier":"inference"},{"id":129,"name":"Tom Barrack","entity_type":"person","lat":34.0549,"lon":-118.2578,"description":"Thomas Joseph Barrack Jr. (b. 1947). Private equity billionaire, founder of Colony Capital, Donald Trump's longest-serving confidant, and a figure whose Middle East financial connections intersect with the Epstein network.\n\nBACKGROUND: Grandparents were Lebanese Maronite Christians who immigrated...","centrality":0.0103,"connection_count":6,"signal_count":0,"evidence_tier":"inference"},{"id":39,"name":"John Gotti","entity_type":"person","lat":40.6575,"lon":-73.8437,"description":"John Joseph Gotti Jr. (1940-2002). 'The Teflon Don' and 'The Dapper Don.' Boss of the Gambino crime family from 1985 until his conviction in 1992.\n\nRISE TO POWER: On December 16, 1985, Gotti orchestrated the assassination of Gambino boss Paul Castellano outside Sparks Steak House in midtown Manha...","centrality":0.0103,"connection_count":6,"signal_count":0,"evidence_tier":"inference"},{"id":42,"name":"John Stanfa","entity_type":"person","lat":39.9526,"lon":-75.1652,"description":"Giovanni Stanfa (b. 1940). Boss of the Philadelphia crime family from 1991 to 1994, installed with Gambino family backing after the Scarfo era. Born in Caccamo, Sicily. Was the driver for Angelo Bruno on the night of his 1980 assassination \u2014 a bullet grazed Stanfa's shoulder, but he was later cle...","centrality":0.0103,"connection_count":6,"signal_count":0,"evidence_tier":"inference"},{"id":27,"name":"Adnan Khashoggi","entity_type":"person","lat":36.51,"lon":-4.8829,"description":"Saudi arms dealer. Iran-Contra middleman. BCCI Monte Carlo client. Connected to Epstein network.","centrality":0.0103,"connection_count":6,"signal_count":0,"evidence_tier":"inference"},{"id":160,"name":"Ari Ben-Menashe","entity_type":"person","lat":45.5017,"lon":-73.5673,"description":"Ari Ben-Menashe (born 1951, Tehran, Iran). Former Israeli military intelligence (Aman) officer who served from 1977 to 1987. Author of 'Profits of War: Inside the Secret U.S.-Israeli Arms Network' (1992), a detailed account of Israeli intelligence operations including arms deals with Iran.\n\nKEY T...","centrality":0.0103,"connection_count":6,"signal_count":0,"evidence_tier":"inference"},{"id":195,"name":"Vladimir Putin","entity_type":"person","lat":55.752,"lon":37.6175,"description":"Vladimir Vladimirovich Putin (born 1952). President of the Russian Federation (2000-2008, 2012-present), Prime Minister (1999-2000, 2008-2012). Career intelligence officer in the KGB (1975-1991), stationed in Dresden, East Germany coordinating with the Stasi. Resigned from KGB with rank of Lieute...","centrality":0.0103,"connection_count":6,"signal_count":0,"evidence_tier":"inference"},{"id":497,"name":"Michael Aquino","entity_type":"person","lat":37.7749,"lon":-122.4194,"description":"Lt. Colonel, U.S. Army. Psychological operations specialist with top-secret clearances (NSA, DIA). Founded the Temple of Set (1975) as a breakaway from Anton LaVey's Church of Satan. Co-authored 'From PSYOP to MindWar' (1980) with Gen. Paul Vallely, proposing psychotronic weapons and mass psychol...","centrality":0.0103,"connection_count":6,"signal_count":0,"evidence_tier":"inference"},{"id":510,"name":"Franklin Cover-Up","entity_type":"event","lat":41.2565,"lon":-95.9345,"description":"Scandal centered on Franklin Credit Union in Omaha, Nebraska (1988-1991). Manager Larry King embezzled $40M and was convicted of financial fraud. Multiple witnesses (Paul Bonacci, Alisha Owen, Troy Boner) testified about a child trafficking ring running from Boys Town through King to Washington D...","centrality":0.0103,"connection_count":6,"signal_count":0,"evidence_tier":"credible"},{"id":518,"name":"Operation Ajax","entity_type":"program","lat":35.6892,"lon":51.389,"description":"Joint CIA-MI6 covert operation (August 1953) that overthrew the democratically elected Prime Minister of Iran, Mohammad Mossadegh, after he nationalized the Anglo-Iranian Oil Company (now BP). The CIA's own internal history (written by operative Donald Wilber, declassified 2013) details the opera...","centrality":0.0103,"connection_count":6,"signal_count":0,"evidence_tier":"documented"},{"id":519,"name":"Operation PBSuccess","entity_type":"program","lat":14.6349,"lon":-90.5069,"description":"CIA covert operation (June 1954) that overthrew the democratically elected president of Guatemala, Jacobo \u00c1rbenz, after his agrarian reform threatened United Fruit Company landholdings. Allen Dulles authorized the operation; his brother John Foster Dulles (Secretary of State) had been a United Fr...","centrality":0.0103,"connection_count":6,"signal_count":0,"evidence_tier":"documented"},{"id":155,"name":"Zorro Ranch","entity_type":"facility","lat":34.8889,"lon":-105.8578,"description":"Zorro Ranch. A 10,000-acre private property located near Stanley, New Mexico, approximately 30 miles southeast of Santa Fe. Owned by Jeffrey Epstein from the early 1990s until his death in 2019. Approximately 1,200 acres were leased from the New Mexico State Land Commission.\n\nVirginia Giuffre tes...","centrality":0.0086,"connection_count":5,"signal_count":0,"evidence_tier":"documented"},{"id":196,"name":"FSB","entity_type":"agency","lat":55.7601,"lon":37.6261,"description":"Federal Security Service of the Russian Federation (Federalnaya Sluzhba Bezopasnosti). Domestic intelligence and security agency, primary successor to the KGB's Second Chief Directorate (counterintelligence) and Fifth Directorate (dissidents). Established 1995.\n\nPutin served as FSB Director from ...","centrality":0.0086,"connection_count":5,"signal_count":0,"evidence_tier":"credible"},{"id":186,"name":"Metropolitan Police","entity_type":"agency","lat":51.4988,"lon":-0.1341,"description":"Metropolitan Police Service (the Met). The territorial police force responsible for law enforcement in Greater London (excluding the City of London). The UK's largest police force, with approximately 34,000 officers.\n\nEPSTEIN INVESTIGATION FAILURE: The Met opened an investigation into Epstein-rel...","centrality":0.0086,"connection_count":5,"signal_count":0,"evidence_tier":"credible"},{"id":273,"name":"CENTCOM","entity_type":"agency","lat":27.9506,"lon":-82.4572,"description":"United States Central Command. Unified combatant command responsible for US military operations in the Middle East, Central Asia, and parts of South Asia. Headquartered at MacDill AFB, Tampa, FL with forward HQ at Al Udeid Air Base, Qatar. CENTCOM directed Operation Epic Fury against Iran on Febr...","centrality":0.0086,"connection_count":5,"signal_count":0,"evidence_tier":"documented"},{"id":262,"name":"Bechtel Corporation","entity_type":"organization","lat":38.9544,"lon":-77.349,"description":"One of the largest private corporations in the world \u2014 massive government construction contracts. Bechtel family has been involved in Bohemian Club for generations. Textbook revolving door: executives Caspar Weinberger (VP/GC \u2192 SecDef) and George Shultz (President \u2192 SecState) moved directly into ...","centrality":0.0086,"connection_count":5,"signal_count":0,"evidence_tier":"credible"},{"id":142,"name":"Black Cube","entity_type":"organization","lat":32.0853,"lon":34.7818,"description":"Black Cube (BC Strategy Ltd). Private intelligence firm founded in 2010 by former Israeli intelligence officers Dan Zorella and Avi Yanus. Based in London, Tel Aviv, and Madrid. Staffed by former members of Mossad and Aman (Israeli military intelligence). Board included former Mossad director Mei...","centrality":0.0086,"connection_count":5,"signal_count":0,"evidence_tier":"credible"},{"id":64,"name":"Southern Air Transport","entity_type":"organization","lat":25.7959,"lon":-80.287,"description":"CIA front airline. Iran-Contra arms/drugs flights. Ohio taxpayer subsidies at Wexner's behest. Bankruptcy same day as CIA IG report.","centrality":0.0086,"connection_count":5,"signal_count":0,"evidence_tier":"credible"},{"id":78,"name":"Gambino Crime Family","entity_type":"organization","lat":40.7128,"lon":-74.006,"description":"One of the Five Families of New York. Led by Paul Castellano (until 1985 assassination), then John Gotti (1985-1992). Co-controlled S&A Concrete with the Genovese family, providing concrete for major Manhattan construction including Trump Tower. Roy Cohn represented both Castellano and Gotti. Ext...","centrality":0.0086,"connection_count":5,"signal_count":0,"evidence_tier":"credible"},{"id":217,"name":"Karin Models","entity_type":"organization","lat":48.8566,"lon":2.3522,"description":"Paris modeling agency originally founded by Karin Mossberg. Jean-Luc Brunel began working there in the late 1970s and was running the company by 1978. He discovered models who became prominent, including Christy Turlington (discovered at age 14) and Sharon Stone.\n\nExposed by CBS 60 Minutes in 198...","centrality":0.0086,"connection_count":5,"signal_count":0,"evidence_tier":"credible"},{"id":236,"name":"Medell\u00edn Cartel","entity_type":"organization","lat":6.2518,"lon":-75.5636,"description":"Colombian drug cartel based in Medell\u00edn, active 1976-1993. Responsible for the majority of cocaine entering the United States in the 1980s.\n\nIntelligence connections: CIA supported paramilitary groups fighting Pablo Escobar in 1992-93. CIA provided materiel support and helped form Los Pepes (Pers...","centrality":0.0086,"connection_count":5,"signal_count":0,"evidence_tier":"credible"},{"id":455,"name":"SRI International","entity_type":"organization","lat":37.453,"lon":-122.1817,"description":"Stanford Research Institute (renamed SRI International 1977). Hosted CIA/DIA-funded remote viewing research from 1972-1990s. Puthoff, Targ, Swann, and Price conducted experiments there. Published in Nature. Research moved to SAIC in 1991.","centrality":0.0086,"connection_count":5,"signal_count":0,"evidence_tier":"credible"},{"id":335,"name":"Telecommunications Act of 1996","entity_type":"legislation","lat":38.8899,"lon":-77.0091,"description":"Major U.S. legislation signed by President Clinton on February 8, 1996. The first significant overhaul of telecommunications law since 1934. Removed most ownership limits on radio stations (previously capped at 40 nationally) and relaxed television ownership rules. Enabled massive media consolida...","centrality":0.0086,"connection_count":5,"signal_count":0,"evidence_tier":"credible"},{"id":458,"name":"Project Stargate","entity_type":"program","lat":39.1086,"lon":-76.7714,"description":"Umbrella name for the U.S. government's remote viewing programs (1978-1995). Previously named Grill Flame, Center Lane, Sun Streak. CIA-initiated at SRI, later managed by DIA. 89,000+ declassified documents. AIR review statistician Jessica Utts confirmed results were statistically significant.","centrality":0.0086,"connection_count":5,"signal_count":0,"evidence_tier":"credible"},{"id":308,"name":"Grusch Congressional Hearing","entity_type":"event","lat":38.8899,"lon":-77.0091,"description":"July 26, 2023: House Oversight Subcommittee on National Security hearing titled 'Unidentified Anomalous Phenomena: Implications on National Security, Public Safety, and Government Transparency.' Witnesses: David Grusch (former NRO/UAPTF), Ryan Graves (Americans for Safe Aerospace), Ret. Cmdr. Dav...","centrality":0.0086,"connection_count":5,"signal_count":0,"evidence_tier":"credible"},{"id":148,"name":"Sarah Kellen","entity_type":"person","lat":40.7128,"lon":-74.006,"description":"Sarah Kellen (b. circa 1979-1980). Epstein's primary day-to-day scheduler and operational coordinator, described by victims and investigators as the administrative infrastructure of Epstein's trafficking operation.\n\nROLE: Kellen managed Epstein's calendar and logistics across his Palm Beach, Manh...","centrality":0.0086,"connection_count":5,"signal_count":0,"evidence_tier":"inference"},{"id":150,"name":"Lesley Groff","entity_type":"person","lat":40.7128,"lon":-74.006,"description":"Lesley Groff. Executive assistant to Jeffrey Epstein for nearly 20 years (approximately 2001-2019). Named co-conspirator in both the 2007 NPA and 2019 FBI investigation documents. One of the most frequently mentioned names in the released DOJ Epstein files.\n\nBACKGROUND: Resided in New Canaan, Con...","centrality":0.0086,"connection_count":5,"signal_count":0,"evidence_tier":"inference"},{"id":10,"name":"William Casey","entity_type":"person","lat":38.9517,"lon":-77.1467,"description":"CIA Director 1981-87. Iran-Contra architect. Daily calls with Roy Cohn. BCCI meetings alleged. Mena/Arkansas operations.","centrality":0.0086,"connection_count":5,"signal_count":0,"evidence_tier":"inference"},{"id":109,"name":"Bill Richardson","entity_type":"person","lat":35.687,"lon":-105.9378,"description":"William Blaine Richardson III (1947-2023). Democratic politician who served as U.S. Representative from New Mexico (1983-1997), U.S. Ambassador to the United Nations (1997-1998), Secretary of Energy (1998-2001), and Governor of New Mexico (2003-2011). Ran unsuccessfully for the 2008 Democratic pr...","centrality":0.0086,"connection_count":5,"signal_count":0,"evidence_tier":"inference"},{"id":112,"name":"Larry Summers","entity_type":"person","lat":42.3736,"lon":-71.1097,"description":"Lawrence Henry Summers (born 1954). Economist who served as Secretary of the Treasury (1999-2001) under Clinton, President of Harvard University (2001-2006), and Director of the National Economic Council (2009-2010) under Obama. One of the youngest tenured professors in Harvard's history at age 2...","centrality":0.0086,"connection_count":5,"signal_count":0,"evidence_tier":"inference"},{"id":113,"name":"Rudy Giuliani","entity_type":"person","lat":40.7128,"lon":-74.006,"description":"Rudolph William Louis Giuliani (born 1944). Former U.S. Attorney for the Southern District of New York (1983-1989) and Mayor of New York City (1994-2001). Known as 'America's Mayor' after 9/11. Later served as Donald Trump's personal attorney (2018-2023).\n\nCOMMISSION TRIAL \u2014 DESTROYING THE ITALIA...","centrality":0.0086,"connection_count":5,"signal_count":0,"evidence_tier":"inference"},{"id":250,"name":"Alan Greenspan","entity_type":"person","lat":38.8928,"lon":-77.0454,"description":"Chairman of the Federal Reserve (1987-2006), appointed by Reagan. Received the Social Security Reform Proposals memo from Edwin Harper referencing 'the paper we discussed at the Bohemian Grove' (1981 Reagan Library document). Chaired the Greenspan Commission that recommended the cuts Reagan signe...","centrality":0.0086,"connection_count":5,"signal_count":0,"evidence_tier":"inference"},{"id":121,"name":"Ronald Lauder","entity_type":"person","lat":40.7688,"lon":-73.9625,"description":"Ronald Steven Lauder (b. 1944). Estee Lauder heir, Mega Group member, World Jewish Congress president, and a figure at the intersection of US defense policy, Israeli intelligence infrastructure, and conservative politics.\n\nDEFENSE AND DIPLOMATIC CAREER: Served as Deputy Assistant Secretary of Def...","centrality":0.0086,"connection_count":5,"signal_count":0,"evidence_tier":"inference"},{"id":122,"name":"Michael Steinhardt","entity_type":"person","lat":40.758,"lon":-73.9717,"description":"Michael H. Steinhardt (b. 1940). Hedge fund pioneer, Mega Group member, Birthright Israel co-founder, serial sexual harasser, and looted antiquities trafficker whose father was a Genovese crime family fence.\n\nORGANIZED CRIME ORIGINS: Father Sol Frank 'Red McGee' Steinhardt was a convicted fence f...","centrality":0.0086,"connection_count":5,"signal_count":0,"evidence_tier":"inference"},{"id":430,"name":"David Rockefeller","entity_type":"person","lat":40.758,"lon":-73.9717,"description":"Chairman of Chase Manhattan Bank. Chairman of CFR (1970-1985). Co-founder of Trilateral Commission with Brzezinski (1973). Bilderberg steering committee. In his Memoirs (2002), wrote: 'If that's the charge, I stand guilty, and I am proud of it' regarding accusations of conspiring toward 'one worl...","centrality":0.0086,"connection_count":5,"signal_count":0,"evidence_tier":"inference"},{"id":256,"name":"David McCormick","entity_type":"person","lat":38.9072,"lon":-77.0369,"description":"Hedge fund billionaire (Bridgewater Associates CEO), elected U.S. Senator from Pennsylvania (2024). On the 2023 Bohemian Grove attendance list \u2014 Mandalay camp alongside Michael Bloomberg and Henry Kissinger. 11 men from Mandalay camp donated to his Senate campaign. Appeared with Trump and Brendan...","centrality":0.0086,"connection_count":5,"signal_count":0,"evidence_tier":"inference"},{"id":34,"name":"Fat Tony Salerno","entity_type":"person","lat":40.758,"lon":-73.9717,"description":"Anthony 'Fat Tony' Salerno (1911-1992). Boss of the Genovese crime family, one of the most powerful organized crime figures in New York. Roy Cohn served as Salerno's attorney, connecting him to Donald Trump and the political establishment. Salerno and Paul Castellano (Gambino family) jointly cont...","centrality":0.0086,"connection_count":5,"signal_count":0,"evidence_tier":"inference"},{"id":35,"name":"Paul Castellano","entity_type":"person","lat":40.7524,"lon":-73.9728,"description":"Paul Castellano (1915-1985). Boss of the Gambino crime family. Jointly controlled S&A Concrete with Fat Tony Salerno (Genovese family), providing concrete for major Manhattan construction projects including Trump Tower. Roy Cohn represented both Castellano and Salerno. Assassinated outside Sparks...","centrality":0.0086,"connection_count":5,"signal_count":0,"evidence_tier":"inference"},{"id":40,"name":"Angelo Bruno","entity_type":"person","lat":39.9526,"lon":-75.1652,"description":"Angelo Bruno (1910-1980). 'The Docile Don' and 'The Gentle Don.' Boss of the Philadelphia crime family from 1959 until his assassination in 1980. Commission member and Meyer Lansky partner.\n\nTERRITORY: Controlled organized crime operations throughout the greater Philadelphia metropolitan area and...","centrality":0.0086,"connection_count":5,"signal_count":0,"evidence_tier":"inference"},{"id":41,"name":"Nicky Scarfo","entity_type":"person","lat":39.3643,"lon":-74.4229,"description":"Nicodemo Domenico Scarfo Sr. (1929-2017). 'Little Nicky.' Boss of the Philadelphia crime family from 1981 to 1991, succeeding Angelo Bruno after the bloody succession war. Unlike Bruno's restraint, Scarfo ruled through terror \u2014 responsibility for over 30 murders during his reign. Controlled Atlan...","centrality":0.0086,"connection_count":5,"signal_count":0,"evidence_tier":"inference"},{"id":197,"name":"Semion Mogilevich","entity_type":"person","lat":55.7558,"lon":37.6173,"description":"Semion Yudkovich Mogilevich (born 1946, Kyiv, Ukrainian SSR). Known as the 'Boss of Bosses' of Russian organized crime. FBI Ten Most Wanted Fugitives list (2009-2015). Indicted by DOJ in 2003 on 45 counts of racketeering, fraud, and money laundering related to a $150M stock fraud scheme through Y...","centrality":0.0086,"connection_count":5,"signal_count":0,"evidence_tier":"inference"},{"id":171,"name":"Mohammed bin Salman","entity_type":"person","lat":24.7136,"lon":46.6753,"description":"Mohammed bin Salman Al Saud (born 1985). Crown Prince of Saudi Arabia (2017-present), Prime Minister (2022-present), de facto ruler of the Kingdom. Son of King Salman bin Abdulaziz Al Saud.\n\nCONSOLIDATION OF POWER: In November 2017, MBS conducted the Ritz-Carlton purge \u2014 detaining over 200 Saudi ...","centrality":0.0086,"connection_count":5,"signal_count":0,"evidence_tier":"inference"},{"id":184,"name":"Jimmy Savile","entity_type":"person","lat":53.7997,"lon":-1.5492,"description":"Sir James Wilson Vincent Savile OBE KCSG (1926-2011). English DJ, television presenter, and charity fundraiser. Host of BBC's 'Jim'll Fix It' (1975-1994) and 'Top of the Pops.' Knighted in 1990. Awarded Papal knighthood (KCSG) in 1990.\n\nSEXUAL ABUSE: After his death in 2011, hundreds of allegatio...","centrality":0.0086,"connection_count":5,"signal_count":0,"evidence_tier":"inference"},{"id":267,"name":"Ali Khamenei","entity_type":"person","lat":35.705,"lon":51.418,"description":"Supreme Leader of Iran from 1989 until his death on February 28, 2026. Succeeded Ayatollah Ruhollah Khomeini as Iran's highest political and religious authority. Held ultimate command authority over all Iranian military forces including the IRGC. Killed in the opening strikes of Operation Epic Fu...","centrality":0.0086,"connection_count":5,"signal_count":0,"evidence_tier":"inference"},{"id":128,"name":"Steve Bing","entity_type":"person","lat":34.0549,"lon":-118.2578,"description":"Stephen Leo Bing (1965-2020). Billionaire real estate heir, film producer, and Democratic mega-donor who was a close Clinton associate. Died June 22, 2020, after falling from the 27th floor of his Century City apartment building.\n\nINHERITANCE AND CAREER: At age 18, inherited $600 million from gra...","centrality":0.0086,"connection_count":5,"signal_count":0,"evidence_tier":"inference"},{"id":38,"name":"Alan Dershowitz","entity_type":"person","lat":42.3736,"lon":-71.1097,"description":"Alan Morton Dershowitz (b. 1938). Harvard Law School professor emeritus. Constitutional lawyer. Defense attorney for Jeffrey Epstein during the 2007 NPA negotiations.\n\nServed as Epstein's defense counsel during negotiations that produced the unprecedented Non-Prosecution Agreement. Named by Virgi...","centrality":0.0086,"connection_count":5,"signal_count":0,"evidence_tier":"inference"},{"id":293,"name":"David Grusch","entity_type":"person","lat":38.9072,"lon":-77.0369,"description":"Former NRO representative to the UAP Task Force (GS-15). Testified before House Oversight Committee on July 26, 2023 that the U.S. possesses a 'multi-decade UAP crash retrieval and reverse-engineering program' and 'non-human biologics.' Based on interviews with 40+ witnesses over four years. His ...","centrality":0.0086,"connection_count":5,"signal_count":0,"evidence_tier":"inference"},{"id":495,"name":"Jack Parsons","entity_type":"person","lat":34.1478,"lon":-118.1445,"description":"Rocket engineer, co-founder of Jet Propulsion Laboratory (JPL) and Aerojet. Head of OTO Agape Lodge in Pasadena. Conducted the 'Babalon Working' ritual with L. Ron Hubbard (1946). Exemplifies the occult-technology intersection \u2014 simultaneously advancing U.S. rocketry and practicing Thelemic magic...","centrality":0.0086,"connection_count":5,"signal_count":0,"evidence_tier":"inference"},{"id":498,"name":"L. Ron Hubbard","entity_type":"person","lat":34.0522,"lon":-118.2437,"description":"Science fiction writer who founded the Church of Scientology (1954). Participated in the Babalon Working with Jack Parsons at OTO Agape Lodge (1945-46), reportedly absconding with Parsons' money and girlfriend. Created Dianetics (1950) and built Scientology into a global organization. Oversaw or ...","centrality":0.0086,"connection_count":5,"signal_count":0,"evidence_tier":"inference"},{"id":516,"name":"Operation Gladio","entity_type":"program","lat":41.9028,"lon":12.4964,"description":"NATO clandestine 'stay-behind' network established across Western Europe during the Cold War. Officially intended as resistance forces in case of Soviet invasion, the networks in Italy, Belgium, Turkey, Greece, and elsewhere were used to carry out terrorist attacks against civilians \u2014 the 'Strate...","centrality":0.0086,"connection_count":5,"signal_count":0,"evidence_tier":"credible"},{"id":560,"name":"Five Eyes","entity_type":"organization","lat":38.9517,"lon":-77.1467,"description":"Intelligence alliance comprising the United States (NSA), United Kingdom (GCHQ), Canada (CSE), Australia (ASD), and New Zealand (GCSB). Formalized by the UKUSA Agreement signed in 1946 (declassified in 2010), building on the BRUSA Agreement of 1943. The five nations agree to collect, analyze, and...","centrality":0.0086,"connection_count":5,"signal_count":0,"evidence_tier":"credible"},{"id":156,"name":"9 East 71st Street","entity_type":"facility","lat":40.7719,"lon":-73.9639,"description":"9 East 71st Street. The Herbert N. Straus House, a seven-story neo-French Renaissance mansion on Manhattan's Upper East Side. One of the largest private residences in New York City, valued at approximately $77 million.\n\nOWNERSHIP HISTORY: Originally built in 1932. Occupied by the Birch Wathen Sch...","centrality":0.0069,"connection_count":4,"signal_count":0,"evidence_tier":"documented"},{"id":457,"name":"DIA","entity_type":"agency","lat":38.8425,"lon":-77.0147,"description":"Defense Intelligence Agency. Managed Project Stargate (remote viewing) from 1986-1995 after taking over from CIA. Also commissioned the 38 DIRDs (Defense Intelligence Reference Documents) through AAWSAP, several covering consciousness and psi phenomena.","centrality":0.0069,"connection_count":4,"signal_count":0,"evidence_tier":"credible"},{"id":350,"name":"NIH","entity_type":"agency","lat":38.9996,"lon":-77.1024,"description":"U.S. National Institutes of Health, the primary federal agency for biomedical research. Comprises 27 institutes and centers, including NIAID (directed by Anthony Fauci, 1984-2022). Distributes approximately $45 billion annually in research grants \u2014 making it the single largest funder of biomedica...","centrality":0.0069,"connection_count":4,"signal_count":0,"evidence_tier":"credible"},{"id":67,"name":"Carbyne","entity_type":"organization","lat":32.0853,"lon":34.7818,"description":"Israeli emergency call-handling tech company. Co-founded by Ehud Barak. Epstein invested. Potential mass surveillance vector.","centrality":0.0069,"connection_count":4,"signal_count":0,"evidence_tier":"credible"},{"id":63,"name":"Systematics","entity_type":"organization","lat":34.7465,"lon":-92.2896,"description":"Stephens-owned tech firm. Alleged primary vehicle for NSA to implant bugged PROMIS software in banks worldwide.","centrality":0.0069,"connection_count":4,"signal_count":0,"evidence_tier":"credible"},{"id":216,"name":"Elite Model Management","entity_type":"organization","lat":48.8726,"lon":2.3124,"description":"Major international modeling agency founded in Paris by John Casablancas (1972). Became one of the world's most powerful agencies, representing supermodels including Linda Evangelista, Naomi Campbell, and Cindy Crawford.\n\nThe Paris office, run by G\u00e9rald Marie, was the epicenter of systematic abus...","centrality":0.0069,"connection_count":4,"signal_count":0,"evidence_tier":"credible"},{"id":209,"name":"Lippo Group","entity_type":"organization","lat":-6.1751,"lon":106.865,"description":"Lippo Group. Multi-billion-dollar Indonesian conglomerate controlled by the Riady family (Mochtar Riady and his son James Riady). Operations span banking, real estate, manufacturing, insurance, securities, and retail across Southeast Asia.\n\nCHINESE INTELLIGENCE CONNECTION: The 1998 Senate Governm...","centrality":0.0069,"connection_count":4,"signal_count":0,"evidence_tier":"credible"},{"id":208,"name":"CITIC Group","entity_type":"organization","lat":39.9192,"lon":116.4614,"description":"China International Trust and Investment Corporation (CITIC Group). State-owned investment conglomerate established in 1979 at the direction of Deng Xiaoping. One of China's largest and most influential financial and industrial conglomerates.\n\nMILITARY-INTELLIGENCE CONNECTIONS: The Rand Corporati...","centrality":0.0069,"connection_count":4,"signal_count":0,"evidence_tier":"credible"},{"id":82,"name":"Murder Incorporated","entity_type":"organization","lat":40.6782,"lon":-73.9442,"description":"Enforcement arm of the National Crime Syndicate, established by Lucky Luciano and Meyer Lansky in the early 1930s. Operated as a professional assassination service for the Commission. Based in Brooklyn under Albert Anastasia and Louis Buchalter. Responsible for an estimated 400-1,000 contract kil...","centrality":0.0069,"connection_count":4,"signal_count":0,"evidence_tier":"credible"},{"id":324,"name":"News Corp","entity_type":"organization","lat":40.758,"lon":-73.9717,"description":"American mass media conglomerate controlled by the Murdoch family. Split from 21st Century Fox in 2013. Owns The Wall Street Journal, New York Post, The Times (London), The Sun, The Australian, HarperCollins Publishers, Dow Jones, and REA Group. Together with Fox Corporation (Fox News, Fox Sports...","centrality":0.0069,"connection_count":4,"signal_count":0,"evidence_tier":"credible"},{"id":412,"name":"Lockheed Martin","entity_type":"organization","lat":38.992,"lon":-77.0798,"description":"World's largest defense contractor. Formed from 1995 merger of Lockheed Corporation and Martin Marietta. F-35, F-22, C-130, missile defense. Revenue ~$66B (2022). Spends ~$13M annually on lobbying. Revolving door with Pentagon is pervasive.","centrality":0.0069,"connection_count":4,"signal_count":0,"evidence_tier":"credible"},{"id":419,"name":"Booz Allen Hamilton","entity_type":"organization","lat":38.9339,"lon":-77.1773,"description":"Management and IT consulting firm, major intelligence community contractor. Employed Edward Snowden at time of NSA disclosures. 70%+ revenue from government contracts. Called 'the world's most profitable spy organization' by Bloomberg.","centrality":0.0069,"connection_count":4,"signal_count":0,"evidence_tier":"credible"},{"id":435,"name":"Trilateral Commission","entity_type":"organization","lat":40.758,"lon":-73.9717,"description":"Private organization founded 1973 by David Rockefeller and Zbigniew Brzezinski to foster cooperation between North America, Western Europe, and Japan. Jimmy Carter was a member before becoming president. Membership reads like a who's who of Western political and financial elite.","centrality":0.0069,"connection_count":4,"signal_count":0,"evidence_tier":"credible"},{"id":490,"name":"Skull and Bones","entity_type":"organization","lat":41.3083,"lon":-72.9279,"description":"Secret society at Yale University (est. 1832). 15 seniors 'tapped' annually. Members include multiple presidents (Taft, G.H.W. Bush, G.W. Bush), senators, CIA directors, Supreme Court justices, media moguls. Both 2004 presidential candidates (Bush and Kerry) were Bonesmen.","centrality":0.0069,"connection_count":4,"signal_count":0,"evidence_tier":"credible"},{"id":352,"name":"Bill & Melinda Gates Foundation","entity_type":"foundation","lat":47.624,"lon":-122.3474,"description":"Largest private foundation in the world with an endowment exceeding $67 billion. The dominant private funder of global health programs. Second-largest contributor to the WHO. Co-founded and funds GAVI. Funds research at universities, health ministries, and NGOs across 130+ countries. Its grant-ma...","centrality":0.0069,"connection_count":4,"signal_count":0,"evidence_tier":"credible"},{"id":306,"name":"UAP Disclosure Act","entity_type":"legislation","lat":38.8899,"lon":-77.0091,"description":"Bipartisan legislation led by Schumer (D-NY) and Rounds (R-SD), modeled on the JFK Assassination Records Collection Act. Original version included eminent domain over technologies of unknown origin (TUO) and biological evidence of NHI held by private entities, plus a 9-member UAP Records Review B...","centrality":0.0069,"connection_count":4,"signal_count":0,"evidence_tier":"credible"},{"id":93,"name":"Total Information Awareness","entity_type":"program","lat":38.8806,"lon":-77.1085,"description":"DARPA mass surveillance program directed by John Poindexter (2002). Congress defunded 2003. Capabilities migrated to NSA.","centrality":0.0069,"connection_count":4,"signal_count":0,"evidence_tier":"credible"},{"id":239,"name":"Operation Condor","entity_type":"program","lat":-33.4489,"lon":-70.6693,"description":"Formal system to coordinate repression among Southern Cone countries: Argentina, Uruguay, Chile, Paraguay, Bolivia, Brazil. Active mid-1970s to early 1980s.\n\nU.S. support documented: Washington provided military intelligence, training, financial assistance, advanced computers, tracking technology...","centrality":0.0069,"connection_count":4,"signal_count":0,"evidence_tier":"credible"},{"id":102,"name":"Epstein Death (2019)","entity_type":"event","lat":40.7149,"lon":-74.001,"description":"Epstein found dead in MCC cell Aug 10, 2019. Ruled suicide. Cameras malfunctioned. Guards sleeping.","centrality":0.0069,"connection_count":4,"signal_count":0,"evidence_tier":"documented"},{"id":159,"name":"Maxwell Trial (2021)","entity_type":"event","lat":40.6882,"lon":-73.9903,"description":"United States v. Ghislaine Maxwell (S.D.N.Y. 20-cr-330). Federal sex trafficking trial held November-December 2021 in Manhattan.\n\nGhislaine Maxwell was charged with six counts including sex trafficking of a minor, enticement of a minor, and conspiracy. Over three weeks of testimony, four women de...","centrality":0.0069,"connection_count":4,"signal_count":0,"evidence_tier":"credible"},{"id":210,"name":"Cox Report (1999)","entity_type":"event","lat":38.8899,"lon":-77.0091,"description":"Cox Report (formally: Report of the Select Committee on U.S. National Security and Military/Commercial Concerns with the People's Republic of China). Classified January 3, 1999; declassified version released May 25, 1999. 3-volume, 871-page investigation commissioned by a 409-10 vote of the U.S. ...","centrality":0.0069,"connection_count":4,"signal_count":0,"evidence_tier":"credible"},{"id":276,"name":"Operation Midnight Hammer","entity_type":"event","lat":35.6892,"lon":51.389,"description":"US/Israeli codename for the June 2025 nuclear strikes on Iran's nuclear infrastructure. Targeted Natanz uranium enrichment facility, Fordow enrichment plant (built inside a mountain near Qom), and Isfahan Nuclear Technology Center. This operation set the context for the broader military escalatio...","centrality":0.0069,"connection_count":4,"signal_count":0,"evidence_tier":"credible"},{"id":149,"name":"Nadia Marcinkova","entity_type":"person","lat":40.7128,"lon":-74.006,"description":"Nadia Marcinkova, now Nadia Marcinko (b. circa 1986, Kosice, Slovakia). Brought to the United States by Jeffrey Epstein as a teenager from Eastern Europe. Named co-conspirator in the 2007 NPA. Later became a licensed pilot and aviation entrepreneur.\n\nORIGIN AND TRAFFICKING: According to Palm Beac...","centrality":0.0069,"connection_count":4,"signal_count":0,"evidence_tier":"inference"},{"id":146,"name":"Maria Farmer","entity_type":"person","lat":40.7128,"lon":-74.006,"description":"Maria Kristine Farmer (b. November 28, 1969, Paducah, Kentucky). Visual artist and the first known person to file a criminal complaint against Jeffrey Epstein and Ghislaine Maxwell \u2014 in 1996, nine years before the Palm Beach investigation.\n\nBACKGROUND: Trained as a figurative painter at the New Y...","centrality":0.0069,"connection_count":4,"signal_count":0,"evidence_tier":"inference"},{"id":151,"name":"Nicole Junkermann","entity_type":"person","lat":51.5074,"lon":-0.1278,"description":"Nicole Junkermann (b. 1975, Dusseldorf, Germany). Entrepreneur, venture capitalist, and investor whose business activities intersect the Epstein network, Israeli intelligence-linked technology, and government health advisory roles.\n\nINVESTMENT CAREER: Founder and chair of NJF Holdings (establishe...","centrality":0.0069,"connection_count":4,"signal_count":0,"evidence_tier":"inference"},{"id":16,"name":"J. Edgar Hoover","entity_type":"person","lat":38.8977,"lon":-77.0248,"description":"FBI Director 1924-1972. Compromised by Lansky photographs. Refused to investigate organized crime for decades.","centrality":0.0069,"connection_count":4,"signal_count":0,"evidence_tier":"inference"},{"id":28,"name":"Richard Helms","entity_type":"person","lat":38.9517,"lon":-77.1467,"description":"CIA Director. Ordered MKULTRA files destroyed 1973. Drafted legal language protecting BCCI front-men despite later denials.","centrality":0.0069,"connection_count":4,"signal_count":0,"evidence_tier":"inference"},{"id":114,"name":"Sandy Berger","entity_type":"person","lat":38.9007,"lon":-77.0517,"description":"Samuel Richard 'Sandy' Berger (1945-2015). Democratic attorney and political operative who served as Deputy National Security Advisor (1993-1997) and National Security Advisor (1997-2001) under President Clinton. Born in Millerton, New York. Cornell University BA (1967), Harvard Law JD (1971). Co...","centrality":0.0069,"connection_count":4,"signal_count":0,"evidence_tier":"inference"},{"id":37,"name":"Alexander Acosta","entity_type":"person","lat":25.7617,"lon":-80.1918,"description":"Robert Alexander Acosta (b. 1969). US Attorney for the Southern District of Florida (2005-2009). US Secretary of Labor (2017-2019).\n\nAs US Attorney, Acosta negotiated the 2007 Non-Prosecution Agreement with Jeffrey Epstein \u2014 an unprecedented deal that allowed Epstein to plead guilty to state soli...","centrality":0.0069,"connection_count":4,"signal_count":0,"evidence_tier":"inference"},{"id":244,"name":"Dick Cheney","entity_type":"person","lat":38.9072,"lon":-77.0369,"description":"Vice President under George W. Bush (2001-09), Secretary of Defense under George H.W. Bush (1989-93). Bohemian Club member. Former CEO of Halliburton. Key architect of Iraq War alongside fellow Grove members.","centrality":0.0069,"connection_count":4,"signal_count":0,"evidence_tier":"inference"},{"id":245,"name":"Donald Rumsfeld","entity_type":"person","lat":38.8711,"lon":-77.0562,"description":"Secretary of Defense under George W. Bush (2001-06). Bohemian Club member. Co-architect of Iraq invasion with fellow Club members Bush, Cheney, and Powell.","centrality":0.0069,"connection_count":4,"signal_count":0,"evidence_tier":"inference"},{"id":247,"name":"Caspar Weinberger","entity_type":"person","lat":38.8711,"lon":-77.0562,"description":"Secretary of Defense under Reagan (1981-87). Bohemian Club member. Former Vice President and General Counsel of Bechtel Corporation \u2014 the textbook case of the Bechtel-to-government revolving door. Indicted in Iran-Contra, pardoned by George H.W. Bush.","centrality":0.0069,"connection_count":4,"signal_count":0,"evidence_tier":"inference"},{"id":120,"name":"Edgar Bronfman Sr.","entity_type":"person","lat":40.758,"lon":-73.9717,"description":"Edgar Miles Bronfman Sr. (1929-2013). CEO of Seagram, president of the World Jewish Congress, and patriarch of a family whose influence spans liquor, media, intelligence-adjacent philanthropy, and a connection to the NXIVM sex cult.\n\nSEAGRAM LEADERSHIP: Succeeded his father Samuel Bronfman as pre...","centrality":0.0069,"connection_count":4,"signal_count":0,"evidence_tier":"inference"},{"id":123,"name":"Glenn Dubin","entity_type":"person","lat":40.758,"lon":-73.9717,"description":"Glenn Russell Dubin (b. 1957). Hedge fund billionaire whose family maintained an intimate relationship with Jeffrey Epstein before, during, and after his conviction \u2014 including allowing Epstein to serve as godfather to their children.\n\nHEDGE FUND CAREER: Born to a middle-class Jewish family in Wa...","centrality":0.0069,"connection_count":4,"signal_count":0,"evidence_tier":"inference"},{"id":126,"name":"Lynn Forester de Rothschild","entity_type":"person","lat":40.7614,"lon":-73.9776,"description":"Lynn Forester, Lady de Rothschild (b. 1954). American-British businesswoman who served as a key social connector between Jeffrey Epstein and the Clinton-Rothschild orbit.\n\nCAREER: Born in Bergen County, New Jersey. Phi Beta Kappa graduate of Pomona College, honors graduate of Columbia Law School....","centrality":0.0069,"connection_count":4,"signal_count":0,"evidence_tier":"inference"},{"id":127,"name":"Mort Zuckerman","entity_type":"person","lat":40.758,"lon":-73.9717,"description":"Mortimer Benjamin 'Mort' Zuckerman (b. 1937). Canadian-American billionaire media mogul and real estate investor whose financial and social relationship with Epstein included co-investing in a magazine and purchasing a newspaper from the Maxwell family estate.\n\nMEDIA AND REAL ESTATE EMPIRE: Co-fo...","centrality":0.0069,"connection_count":4,"signal_count":0,"evidence_tier":"inference"},{"id":258,"name":"Brendan Bechtel","entity_type":"person","lat":38.9544,"lon":-77.349,"description":"Current CEO of Bechtel Corporation, latest heir to the Bechtel fortune. On 2023 Bohemian Grove attendance list. Appeared with Trump and David McCormick for PA AI data center deal. Bechtel positioned for billions in Trump-era construction: foreign deals brokered by Trump, Venezuelan pipeline inter...","centrality":0.0069,"connection_count":4,"signal_count":0,"evidence_tier":"inference"},{"id":36,"name":"Felix Sater","entity_type":"person","lat":40.7614,"lon":-73.9776,"description":"Felix Henry Sater (b. 1966). Russian-American businessman, convicted felon, and FBI informant. Managing director of Bayrock Group, which partnered with Trump on Trump SoHo and other projects. Born in Moscow, emigrated to the US as a child. Convicted in 1998 in connection with a $40 million stock ...","centrality":0.0069,"connection_count":4,"signal_count":0,"evidence_tier":"inference"},{"id":48,"name":"Frankie Carbo","entity_type":"person","lat":40.7128,"lon":-74.006,"description":"Paolo Giovanni 'Frankie' Carbo (1904-1976). Murder Incorporated triggerman turned boxing czar. Connected to the Lucchese crime family. Suspected in the killing of Bugsy Siegel (1947). With partner Blinky Palermo, controlled professional boxing in America for decades \u2014 fixing fights, managing cham...","centrality":0.0069,"connection_count":4,"signal_count":0,"evidence_tier":"inference"},{"id":19,"name":"Kamal Adham","entity_type":"person","lat":24.7136,"lon":46.6753,"description":"CIA's principal Middle East liaison (mid-1960s-1979). Secret lead front-man for BCCI takeover of First American Bank.","centrality":0.0069,"connection_count":4,"signal_count":0,"evidence_tier":"inference"},{"id":169,"name":"Prince Turki al-Faisal","entity_type":"person","lat":24.7136,"lon":46.6753,"description":"Prince Turki al-Faisal Al Saud (born 1945). Director-General of the Saudi General Intelligence Directorate (GID) from 1979 to August 2001 \u2014 resigned just 10 days before 9/11. Saudi Ambassador to the UK (2003-2005) and to the US (2005-2007).\n\nINTELLIGENCE CAREER: As GID chief for 22 years, Turki w...","centrality":0.0069,"connection_count":4,"signal_count":0,"evidence_tier":"inference"},{"id":172,"name":"Jamal Khashoggi","entity_type":"person","lat":38.9072,"lon":-77.0369,"description":"Jamal Ahmad Khashoggi (1958-2018). Saudi journalist, author, and Washington Post columnist. Assassinated on October 2, 2018 inside the Saudi consulate in Istanbul, Turkey.\n\nFAMILY CONNECTION: Jamal Khashoggi was the nephew of Adnan Khashoggi, the Saudi billionaire arms dealer who served as a midd...","centrality":0.0069,"connection_count":4,"signal_count":0,"evidence_tier":"inference"},{"id":173,"name":"Al-Waleed bin Talal","entity_type":"person","lat":24.7136,"lon":46.6753,"description":"Prince Al-Waleed bin Talal Al Saud (born 1955). Saudi billionaire investor, grandson of the founder of Saudi Arabia (King Abdulaziz) and of Riad El-Solh (Lebanon's first Prime Minister). Known as 'the Warren Buffett of the Middle East.' Forbes estimated net worth peaked at $20+ billion.\n\nKINGDOM ...","centrality":0.0069,"connection_count":4,"signal_count":0,"evidence_tier":"inference"},{"id":181,"name":"Peter Mandelson","entity_type":"person","lat":51.5074,"lon":-0.1278,"description":"Peter Benjamin Mandelson, Baron Mandelson (born 1953). British Labour politician, First Secretary of State (2010), Secretary of State for Business (2008-2010), European Commissioner for Trade (2004-2008), Secretary of State for Northern Ireland (1999-2001), Secretary of State for Trade and Indust...","centrality":0.0069,"connection_count":4,"signal_count":0,"evidence_tier":"inference"},{"id":200,"name":"Johnny Chung","entity_type":"person","lat":34.0549,"lon":-118.2578,"description":"Zhongwen 'Johnny' Chung (born c. 1955). Taiwanese-American businessman from Torrance, California, who became a central figure in the 1996 campaign finance controversy ('Chinagate'). Owner of a fax broadcasting business before entering Democratic fundraising.\n\nFUNDRAISING ACTIVITIES: Between 1994 ...","centrality":0.0069,"connection_count":4,"signal_count":0,"evidence_tier":"inference"},{"id":201,"name":"John Huang","entity_type":"person","lat":38.9072,"lon":-77.0369,"description":"John Huang (born c. 1945). Taiwanese-American political fundraiser and former U.S. Commerce Department official. Key figure in the 1996 campaign finance controversy.\n\nLIPPO GROUP: Before government service, Huang worked for the Lippo Group, a multi-billion-dollar Indonesian conglomerate controlle...","centrality":0.0069,"connection_count":4,"signal_count":0,"evidence_tier":"inference"},{"id":205,"name":"Wang Jun","entity_type":"person","lat":39.9192,"lon":116.4614,"description":"Wang Jun (born c. 1941). Son of former Chinese Vice President Wang Zhen. Simultaneously served as Chairman of CITIC (China International Trust and Investment Corporation) and Chairman of Poly Technologies/Poly Group.\n\nCITIC: State-owned investment conglomerate established in 1979 at the direction...","centrality":0.0069,"connection_count":4,"signal_count":0,"evidence_tier":"inference"},{"id":206,"name":"Desmond Shum","entity_type":"person","lat":51.5074,"lon":-0.1278,"description":"Desmond Shum (born 1968, Shanghai). Chinese-Canadian businessman, real estate developer, and author of 'Red Roulette: An Insider's Story of Wealth, Power, Corruption, and Vengeance in Today's China' (2021). Former husband of Whitney Duan (Duan Weihong), a well-connected Chinese businesswoman with...","centrality":0.0069,"connection_count":4,"signal_count":0,"evidence_tier":"inference"},{"id":211,"name":"G\u00e9rald Marie","entity_type":"person","lat":48.8566,"lon":2.3522,"description":"Head of Elite Model Management's European operations in Paris. One of the most powerful figures in the fashion industry during the 1980s and 1990s. Married to supermodel Linda Evangelista (1987-1993).\n\nAccused of rape and sexual assault by at least 15 women who cooperated with French investigator...","centrality":0.0069,"connection_count":4,"signal_count":0,"evidence_tier":"inference"},{"id":213,"name":"Eileen Ford","entity_type":"person","lat":40.758,"lon":-73.9717,"description":"Co-founder of Ford Models (1946), one of the most powerful modeling agencies in the world. Died 2014.\n\nCritical role in the Brunel pipeline: Ford Models sent young American models to Jean-Luc Brunel at Karin Models in Paris for assignments. CBS 60 Minutes 'American Girls in Paris' (1988) document...","centrality":0.0069,"connection_count":4,"signal_count":0,"evidence_tier":"inference"},{"id":231,"name":"Manuel Noriega","entity_type":"person","lat":8.9824,"lon":-79.5199,"description":"Head of Panamanian military intelligence (G-2) from 1968; de facto ruler of Panama 1983-1989. Born February 11, 1934, Panama City. Died May 29, 2017.\n\nOn CIA payroll from 1971 despite U.S. knowledge of his drug trafficking. CIA Director George H.W. Bush paid Noriega $110,000 in 1976. Carter suspe...","centrality":0.0069,"connection_count":4,"signal_count":0,"evidence_tier":"inference"},{"id":323,"name":"William Binney","entity_type":"person","lat":39.1086,"lon":-76.7714,"description":"Former NSA technical director and 36-year veteran of the agency. Co-created ThinThread, an NSA surveillance program designed with built-in privacy protections for American citizens. After 9/11, NSA leadership chose the warrantless mass surveillance program Stellar Wind over ThinThread, stripping ...","centrality":0.0069,"connection_count":4,"signal_count":0,"evidence_tier":"inference"},{"id":496,"name":"Aleister Crowley","entity_type":"person","lat":51.5074,"lon":-0.1278,"description":"British occultist, founder of Thelema, head of Ordo Templi Orientis (OTO). Documented connections to British intelligence (MI5/MI6) \u2014 worked as agent during WWI and WWII per Richard Spence's archival research. Mentored Jack Parsons remotely through OTO hierarchy. His system of magick influenced m...","centrality":0.0069,"connection_count":4,"signal_count":0,"evidence_tier":"inference"},{"id":511,"name":"Operation Snow White","entity_type":"event","lat":34.0979,"lon":-118.3106,"description":"Church of Scientology covert operation (1973-77) to infiltrate the U.S. government and purge unfavorable records about Scientology and L. Ron Hubbard. The largest known infiltration of the U.S. government in history \u2014 5,000 covert agents placed in 136 government agencies including the IRS, FBI, D...","centrality":0.0069,"connection_count":4,"signal_count":0,"evidence_tier":"credible"},{"id":513,"name":"Operation Northwoods","entity_type":"program","lat":38.8711,"lon":-77.0562,"description":"Joint Chiefs of Staff proposal (March 13, 1962) to stage false flag attacks against US military and civilian targets \u2014 including sinking refugee boats, hijacking planes, bombing Miami, and attacking Guantanamo Bay \u2014 to manufacture a pretext for invading Cuba. Signed by JCS Chairman Lyman Lemnitze...","centrality":0.0069,"connection_count":4,"signal_count":0,"evidence_tier":"documented"},{"id":533,"name":"BlackRock","entity_type":"organization","lat":40.7527,"lon":-73.9772,"description":"World's largest asset manager \u2014 over $10 trillion in assets under management (2024). Founded by Larry Fink in 1988 (originally within Blackstone Group, spun off 1994). Aladdin risk management platform processes over $21 trillion in assets across the financial system. \n\nCORPORATE CONTROL: BlackRoc...","centrality":0.0069,"connection_count":4,"signal_count":0,"evidence_tier":"documented"},{"id":546,"name":"Robert Rubin","entity_type":"person","lat":40.7143,"lon":-74.0144,"description":"Co-chairman of Goldman Sachs, then Bill Clinton's Treasury Secretary (1995-1999), then Citigroup board member and senior counselor. The architect of financial deregulation whose career epitomizes the Wall Street-Washington revolving door. \n\nGLASS-STEAGALL REPEAL: As Treasury Secretary, Rubin push...","centrality":0.0069,"connection_count":4,"signal_count":0,"evidence_tier":"inference"},{"id":548,"name":"Glass-Steagall Repeal","entity_type":"event","lat":38.8899,"lon":-77.0091,"description":"The 1999 Gramm-Leach-Bliley Act repealed the Glass-Steagall Act of 1933, which had separated commercial banking (deposits, loans) from investment banking (securities, trading). Glass-Steagall was enacted after the 1929 crash to prevent banks from gambling with depositors' money. \n\nLOBBYING: The f...","centrality":0.0069,"connection_count":4,"signal_count":0,"evidence_tier":"documented"},{"id":561,"name":"GCHQ","entity_type":"agency","lat":51.8986,"lon":-2.1245,"description":"Government Communications Headquarters \u2014 the United Kingdom's signals intelligence and information assurance agency, headquartered in Cheltenham, Gloucestershire. Successor to the Government Code and Cypher School (GC&CS) at Bletchley Park, which broke the Enigma cipher in WWII. GCHQ is the UK's ...","centrality":0.0069,"connection_count":4,"signal_count":0,"evidence_tier":"documented"},{"id":554,"name":"Room 641A","entity_type":"facility","lat":37.7876,"lon":-122.3999,"description":"Secret room at AT&T's Folsom Street switching facility in San Francisco, exposed by AT&T technician Mark Klein in 2006. The room contained a Narus STA 6400 beam splitter installed in 2003 that copied all internet traffic passing through AT&T's fiber optic backbone \u2014 including domestic communicati...","centrality":0.0069,"connection_count":4,"signal_count":0,"evidence_tier":"documented"},{"id":569,"name":"Gobekli Tepe","entity_type":"facility","lat":37.2233,"lon":38.9225,"description":"Megalithic sanctuary in southeastern Turkey, dated to ~9600-8000 BCE by radiocarbon \u2014 at least 6,000 years older than Stonehenge. Excavated by Klaus Schmidt (1995-2014). Features massive T-shaped limestone pillars (up to 6m, 10+ tons) with carved animal reliefs, arranged in circular enclosures. P...","centrality":0.0069,"connection_count":4,"signal_count":0,"evidence_tier":"documented"},{"id":571,"name":"Great Sphinx","entity_type":"facility","lat":29.9753,"lon":31.1376,"description":"Limestone monument on the Giza Plateau, Egypt. Mainstream dating: ~2500 BCE (reign of Pharaoh Khafre, 4th Dynasty). Robert Schoch's geological analysis (1991) identified vertical weathering patterns in the Sphinx enclosure consistent with prolonged rainfall erosion \u2014 precipitation levels not seen...","centrality":0.0069,"connection_count":4,"signal_count":0,"evidence_tier":"documented"},{"id":572,"name":"Younger Dryas Impact Hypothesis","entity_type":"event","lat":42.3601,"lon":-71.0589,"description":"Scientific hypothesis proposing that one or more extraterrestrial impacts or airbursts ~12,800 years ago triggered the Younger Dryas cold period, megafaunal extinctions, and the collapse of the Clovis culture. First formally proposed by Firestone et al. in PNAS (2007). Supporting evidence include...","centrality":0.0069,"connection_count":4,"signal_count":0,"evidence_tier":"credible"},{"id":75,"name":"Mar-a-Lago","entity_type":"facility","lat":26.6777,"lon":-80.0367,"description":"Mar-a-Lago. Private estate and club in Palm Beach, Florida, owned by Donald Trump since 1985. Site of Trump's claimed ban of Jeffrey Epstein (timing disputed). Epstein's Palm Beach mansion was approximately one mile away. According to court documents and witness testimony, Mar-a-Lago was part of ...","centrality":0.0051,"connection_count":3,"signal_count":0,"evidence_tier":"documented"},{"id":279,"name":"Natanz Nuclear Facility","entity_type":"facility","lat":33.725,"lon":51.727,"description":"Iran's primary uranium enrichment facility, located in Isfahan province. Houses thousands of centrifuges for uranium enrichment, with facilities both above ground and in hardened underground halls. Previously targeted by the Stuxnet cyber weapon (2010) and by Israeli sabotage (2021). Struck in Ju...","centrality":0.0051,"connection_count":3,"signal_count":0,"evidence_tier":"documented"},{"id":280,"name":"Fordow Enrichment Plant","entity_type":"facility","lat":34.882,"lon":51.259,"description":"Iran's secondary uranium enrichment facility, built deep inside a mountain near Qom. Revealed publicly in 2009. Designed to be resistant to aerial bombardment. Struck during Operation Midnight Hammer (June 2025) using bunker-buster munitions and again targeted by B-2 delivered GBU-57 MOPs during ...","centrality":0.0051,"connection_count":3,"signal_count":0,"evidence_tier":"documented"},{"id":227,"name":"BND","entity_type":"agency","lat":52.5131,"lon":13.3651,"description":"Bundesnachrichtendienst \u2014 Germany's foreign intelligence service. Literally created by the CIA.\n\nHistory: The Gehlen Organization was established June 1946 by U.S. occupation authorities, headed by Reinhard Gehlen \u2014 former Wehrmacht Major General and head of Nazi military intelligence on the East...","centrality":0.0051,"connection_count":3,"signal_count":0,"evidence_tier":"credible"},{"id":189,"name":"Crown Prosecution Service","entity_type":"agency","lat":51.5017,"lon":-0.127,"description":"Crown Prosecution Service (CPS). The principal prosecuting authority for criminal cases investigated by the police in England and Wales. Established 1986.\n\nEPSTEIN-RELATED DECISIONS: The CPS reviewed evidence related to Virginia Giuffre's allegations of being trafficked to London for sexual encou...","centrality":0.0051,"connection_count":3,"signal_count":0,"evidence_tier":"credible"},{"id":266,"name":"Quds Force","entity_type":"agency","lat":35.6892,"lon":51.389,"description":"The extraterritorial operations arm of the IRGC, responsible for intelligence and unconventional warfare outside Iran's borders. Manages Iran's relationships with proxy forces including Hezbollah, Hamas, Palestinian Islamic Jihad, Iraqi Shia militias, and Ansar Allah (Houthis). Previously command...","centrality":0.0051,"connection_count":3,"signal_count":0,"evidence_tier":"credible"},{"id":60,"name":"In-Q-Tel","entity_type":"organization","lat":38.8807,"lon":-77.106,"description":"CIA venture capital arm. Founded 1999. Funded companies that became core surveillance infrastructure.","centrality":0.0051,"connection_count":3,"signal_count":0,"evidence_tier":"credible"},{"id":115,"name":"Kissinger Associates","entity_type":"organization","lat":40.7587,"lon":-73.9706,"description":"International geopolitical consulting firm founded by Henry Kissinger in 1982 and headquartered in New York City. The firm provided strategic advisory services to multinational corporations navigating global political risks. Key members included Brent Scowcroft (president, former NSA), Lawrence E...","centrality":0.0051,"connection_count":3,"signal_count":0,"evidence_tier":"credible"},{"id":62,"name":"Rose Law Firm","entity_type":"organization","lat":34.7465,"lon":-92.2896,"description":"Arkansas law firm (Hillary Clinton partner). Represented Systematics AND assisted BCCI's US entry.","centrality":0.0051,"connection_count":3,"signal_count":0,"evidence_tier":"credible"},{"id":74,"name":"Resorts International","entity_type":"organization","lat":39.3643,"lon":-74.4229,"description":"Resorts International. Casino and resort company with documented intelligence community connections. Founded by James Crosby, who established Intertel (International Intelligence Inc.) as its security arm \u2014 staffed by former FBI, CIA, and NSA personnel. Historical connections to Meyer Lansky's ga...","centrality":0.0051,"connection_count":3,"signal_count":0,"evidence_tier":"credible"},{"id":73,"name":"Bayrock Group","entity_type":"organization","lat":40.7614,"lon":-73.9776,"description":"Bayrock Group LLC. Real estate development company headquartered in Trump Tower. Founded by Tevfik Arif, a former Soviet-era government official from Kazakhstan. Felix Sater served as managing director. Partnered with the Trump Organization on Trump SoHo and multiple other projects. Connected to ...","centrality":0.0051,"connection_count":3,"signal_count":0,"evidence_tier":"credible"},{"id":130,"name":"Towers Financial","entity_type":"organization","lat":40.758,"lon":-73.9717,"description":"Towers Financial Corporation. New York debt collection agency founded by Steven Hoffenberg that operated as the largest Ponzi scheme in American history prior to Bernie Madoff, defrauding investors of $475 million between 1988 and 1993. Jeffrey Epstein was hired by Hoffenberg in 1987 at $25,000 p...","centrality":0.0051,"connection_count":3,"signal_count":0,"evidence_tier":"credible"},{"id":131,"name":"Seagram","entity_type":"organization","lat":40.758,"lon":-73.975,"description":"Seagram Company Ltd. One of the world's largest beverage companies, built by the Bronfman family. Founded as Distillers Corporation by Samuel Bronfman in Montreal in 1924, acquiring Joseph E. Seagram & Sons in 1928. The Bronfman fortune originated during American Prohibition, when the family lega...","centrality":0.0051,"connection_count":3,"signal_count":0,"evidence_tier":"credible"},{"id":187,"name":"Pergamon Press","entity_type":"organization","lat":51.752,"lon":-1.2577,"description":"Pergamon Press. Scientific publishing house founded by Robert Maxwell in 1951. Published hundreds of academic journals and became one of the world's largest scientific publishers before being sold to Elsevier in 1991.\n\nINTELLIGENCE COVER: Multiple investigative accounts (Gordon Thomas, John Prest...","centrality":0.0051,"connection_count":3,"signal_count":0,"evidence_tier":"credible"},{"id":175,"name":"Saudi Binladin Group","entity_type":"organization","lat":21.5433,"lon":39.1728,"description":"Saudi Binladin Group (SBG). Saudi Arabia's largest construction company, founded by Mohammed bin Awad bin Laden (Osama bin Laden's father) in 1931. Multi-billion dollar conglomerate with exclusive contracts for Saudi holy sites (Mecca and Medina).\n\nBIN LADEN FAMILY: The family (50+ children of Mo...","centrality":0.0051,"connection_count":3,"signal_count":0,"evidence_tier":"credible"},{"id":79,"name":"Genovese Crime Family","entity_type":"organization","lat":40.7128,"lon":-74.006,"description":"One of the Five Families of New York. Led by Fat Tony Salerno (front boss, convicted 1986). Co-controlled S&A Concrete with the Gambino family. The most powerful family in the Mafia \u2014 managed to keep its true leadership structure hidden for decades. Roy Cohn represented boss Salerno.","centrality":0.0051,"connection_count":3,"signal_count":0,"evidence_tier":"credible"},{"id":84,"name":"S&A Concrete","entity_type":"organization","lat":40.7128,"lon":-74.006,"description":"S&A Concrete. Joint Genovese-Gambino crime family concrete company controlled by Fat Tony Salerno and Paul Castellano. Held a monopoly on concrete deliveries for any Manhattan construction project over $2 million during the 1980s \u2014 the 'Concrete Club.' Provided concrete for Trump Tower, Trump Pla...","centrality":0.0051,"connection_count":3,"signal_count":0,"evidence_tier":"credible"},{"id":237,"name":"SETCO Aviation","entity_type":"organization","lat":14.0818,"lon":-87.2068,"description":"Aviation company based in Honduras. Founded by Honduran drug lord Juan Matta Ballesteros \u2014 a 1983 U.S. Customs Investigative Report stated: 'SETCO Aviation is a corporation formed by American businessmen who are dealing with Juan Matta Ballesteros and are smuggling narcotics into the United State...","centrality":0.0051,"connection_count":3,"signal_count":0,"evidence_tier":"credible"},{"id":238,"name":"School of the Americas","entity_type":"organization","lat":32.3584,"lon":-84.9489,"description":"U.S. military training institution at Fort Benning (now Fort Moore), Columbus, Georgia. Founded 1946. Trained over 60,000 Latin American military, law enforcement, and security personnel by 2000. Renamed WHINSEC (Western Hemisphere Institute for Security Cooperation) in 2001 after sustained criti...","centrality":0.0051,"connection_count":3,"signal_count":0,"evidence_tier":"credible"},{"id":330,"name":"WikiLeaks","entity_type":"organization","lat":51.5074,"lon":-0.1278,"description":"International non-profit organization founded by Julian Assange in 2006 to publish classified, censored, or restricted materials from anonymous sources. Major publications include: Afghan War Diary (2010), Iraq War Logs (2010), U.S. diplomatic cables / Cablegate (2010), Guantanamo files (2011), V...","centrality":0.0051,"connection_count":3,"signal_count":0,"evidence_tier":"credible"},{"id":354,"name":"EcoHealth Alliance","entity_type":"organization","lat":40.758,"lon":-73.9717,"description":"U.S.-based nonprofit research organization focused on emerging infectious diseases. Under President Peter Daszak, served as the intermediary for NIH/NIAID funding (Grant R01 AI110964) to the Wuhan Institute of Virology for bat coronavirus research. The grant funded collection of bat coronaviruses...","centrality":0.0051,"connection_count":3,"signal_count":0,"evidence_tier":"credible"},{"id":355,"name":"Purdue Pharma","entity_type":"organization","lat":41.0534,"lon":-73.5387,"description":"American pharmaceutical company owned by the Sackler family. Developed and marketed OxyContin (extended-release oxycodone) beginning in 1996. The company's aggressive marketing strategy \u2014 including claims that OxyContin had low addiction risk ('less than one percent') \u2014 is credited with igniting ...","centrality":0.0051,"connection_count":3,"signal_count":0,"evidence_tier":"credible"},{"id":356,"name":"Pfizer","entity_type":"organization","lat":40.7614,"lon":-73.9776,"description":"American multinational pharmaceutical company, one of the world's largest by revenue. In 2009, paid $2.3 billion in the largest health care fraud settlement in DOJ history for illegal promotion of Bextra and other drugs. Produced the first authorized mRNA COVID-19 vaccine (with BioNTech) under Em...","centrality":0.0051,"connection_count":3,"signal_count":0,"evidence_tier":"credible"},{"id":376,"name":"Warren Commission","entity_type":"organization","lat":38.8977,"lon":-77.0365,"description":"Presidential commission established by LBJ (Nov 29, 1963) to investigate the JFK assassination. Concluded Oswald acted alone. Members included Allen Dulles (fired CIA Director) and Gerald Ford (later president). Relied heavily on FBI investigation overseen by J. Edgar Hoover. Findings challenged ...","centrality":0.0051,"connection_count":3,"signal_count":0,"evidence_tier":"credible"},{"id":403,"name":"Al-Qaeda","entity_type":"organization","lat":31.6133,"lon":65.7101,"description":"Militant organization founded by Osama bin Laden (1988). Originally mujahideen fighters supported by CIA in 1980s Afghanistan (Operation Cyclone). Carried out 9/11 attacks. Saudi funding documented in 28 Pages.","centrality":0.0051,"connection_count":3,"signal_count":0,"evidence_tier":"credible"},{"id":434,"name":"Bilderberg Group","entity_type":"organization","lat":52.1601,"lon":4.497,"description":"Annual invitation-only conference of 120-150 political leaders, business executives, academics, and media from North America and Western Europe. Founded 1954 by Prince Bernhard of the Netherlands at Hotel de Bilderberg. Operates under Chatham House Rule. Participant lists published since 2010; pr...","centrality":0.0051,"connection_count":3,"signal_count":0,"evidence_tier":"credible"},{"id":470,"name":"NIDS","entity_type":"organization","lat":36.1699,"lon":-115.1398,"description":"National Institute for Discovery Science. Founded by Robert Bigelow (1995). Studied UAP, cattle mutilations, Skinwalker Ranch phenomena. Board included Kit Green, Hal Puthoff, Edgar Mitchell, John Alexander. Disbanded 2004. Personnel and data transitioned to BAASS for AAWSAP.","centrality":0.0051,"connection_count":3,"signal_count":0,"evidence_tier":"credible"},{"id":442,"name":"Rockefeller Foundation","entity_type":"foundation","lat":40.758,"lon":-73.9717,"description":"Founded 1913 by John D. Rockefeller. Funded public health, agriculture (Green Revolution), social science. Church Committee documented CIA use of foundations as funding conduits during Cold War \u2014 Rockefeller Foundation among those identified.","centrality":0.0051,"connection_count":3,"signal_count":0,"evidence_tier":"credible"},{"id":95,"name":"COINTELPRO","entity_type":"program","lat":38.8977,"lon":-77.0248,"description":"FBI domestic counterintelligence program. 2,370 approved actions (1956-71). Sexual disruption as explicit technique.","centrality":0.0051,"connection_count":3,"signal_count":0,"evidence_tier":"credible"},